address,latitude,longitude,status,original_index
91XX TEASLEY LN DENTON TX ,33.1678163,-97.1103429,VALID,0.0
32XX N LOCUST ST DENTON TX ,33.256469,-97.1316417,VALID,1.0
26XX W UNIVERSITY DR DENTON TX ,33.2303119,-97.1816464,VALID,2.0
7XX FORT WORTH DR DENTON TX ,33.1675471,-97.1532309,VALID,3.0
30XX HOWARD CT DENTON TX ,33.22551,-97.0989711,VALID,4.0
27XX W UNIVERSITY DR DENTON TX ,33.2303119,-97.1816464,VALID,5.0
5XX W UNIVERSITY DR DENTON TX ,33.2303119,-97.1816464,VALID,6.0
15XX MEADOW ST DENTON TX ,33.1986625,-97.134764,VALID,7.0
75XX TEASLEY LN DENTON TX ,33.1678163,-97.1103429,VALID,8.0
2XX INMAN ST DENTON TX ,33.1986254,-97.1321003,VALID,9.0
16XX TEASLEY LN DENTON TX ,33.1678163,-97.1103429,VALID,10.0
22XX S I 35 E DENTON TX ,33.1814754,-97.102065,VALID,11.0
20XX W UNIVERSITY DR DENTON TX ,33.2303119,-97.1816464,VALID,12.0
51XX E MCKINNEY ST DENTON TX ,33.2115705,-97.0875966,VALID,13.0
14XX MISTY HOLLOW ST DENTON TX ,33.2305226,-97.0957351,VALID,14.0
6XX E HICKORY ST DENTON TX ,33.2144196,-97.1253362,VALID,15.0
W UNIVERSITY DR DENTON TX ,33.2303119,-97.1816464,VALID,16.0
11XX EGAN ST DENTON TX ,33.2203978,-97.1422526,VALID,17.0
DATA SUPPRESSED,,,NOT_FOUND,18.0
I 35 W DENTON COUNTY TX ,33.1010526,-97.224088,VALID,19.0
W HICKORY ST DENTON TX ,33.2146565,-97.1475676,VALID,20.0
24XX STOCKBRIDGE RD DENTON TX ,33.1839991,-97.0916819,VALID,21.0
38XX ATLAS DR DENTON TX ,33.2550754,-97.1245216,VALID,22.0
78XX ALDERS GATE LN DENTON TX ,33.1707863,-97.0588861,VALID,23.0
23XX E UNIVERSITY DR DENTON TX ,33.2345383,-97.0783176,VALID,24.0
4XX AME DR DENTON TX ,33.258715,-97.1331765,VALID,25.0
23XX LOON LAKE RD DENTON TX ,33.1745164,-97.1068236,VALID,26.0
35XX S I 35 E DENTON TX ,33.1814754,-97.102065,VALID,27.0
3XX W UNIVERSITY DR DENTON TX ,33.2303119,-97.1816464,VALID,28.0
7XX CAMPBELL LN DENTON TX ,33.2181214,-97.1125522,VALID,29.0
12XX CORDELL ST DENTON TX ,33.2266141,-97.1471889,VALID,30.0
15XX S LOOP 288 DENTON TX ,33.1970392,-97.0919826,VALID,31.0
27XX COLORADO BLVD DENTON TX ,33.1875187,-97.1026425,VALID,32.0
10XX W UNIVERSITY DR DENTON TX ,33.2303119,-97.1816464,VALID,33.0
18XX S LOOP 288 DENTON TX ,33.1970392,-97.0919826,VALID,34.0
9XX DIXON LN DENTON TX ,33.2577927,-97.1190785,VALID,35.0
26XX EDWARDS RD DENTON TX ,33.1780772,-97.0726157,VALID,36.0
14XX AMHERST DR DENTON TX ,33.2313075,-97.149459,VALID,37.0
46XX S BONNIE BRAE ST DENTON TX ,33.1837027,-97.1641773,VALID,38.0
13XX SCRIPTURE ST DENTON TX ,33.2188813,-97.1575335,VALID,39.0
5XX JANNIE ST DENTON TX ,33.2180124,-97.1154125,VALID,40.0
33XX E MCKINNEY ST DENTON TX ,33.2115705,-97.0875966,VALID,41.0
7XX W CONGRESS ST DENTON TX ,33.219372,-97.1407651,VALID,42.0
10XX FANNIN ST DENTON TX ,33.2053796,-97.1451123,VALID,43.0
23XX I 35 W DENTON TX ,33.1648139,-97.1855749,VALID,44.0
53XX E MCKINNEY ST DENTON TX ,33.2115705,-97.0875966,VALID,45.0
18XX FORT WORTH DR DENTON TX ,33.1675471,-97.1532309,VALID,46.0
19XX N RUDDELL ST DENTON TX ,33.222033,-97.1178217,VALID,47.0
TEASLEY LN DENTON TX ,33.1678163,-97.1103429,VALID,48.0
E PRAIRIE ST DENTON TX ,33.2105793,-97.1259592,VALID,49.0
5XX NEPTUNE DR DENTON TX ,33.25958,-97.12503,VALID,50.0
40XX TEASLEY LN DENTON TX ,33.1678163,-97.1103429,VALID,51.0
6XX BERNARD ST DENTON TX ,33.2010666,-97.1416274,VALID,52.0
9XX MANHATTAN DR DENTON TX ,33.2471244,-97.1195215,VALID,53.0
26XX W OAK ST DENTON TX ,33.2157359,-97.1545246,VALID,54.0
5XX INMAN ST DENTON TX ,33.1986254,-97.1321003,VALID,55.0
6XX LONDONDERRY LN DENTON TX ,33.1899152,-97.1257002,VALID,56.0
1XX AVE A DENTON TX ,33.2083388,-97.1462368,VALID,57.0
BRADLEY ST DENTON TX ,33.217931,-97.1539703,VALID,58.0
8XX ROSE ST DENTON TX ,33.2199077,-97.1230931,VALID,59.0
25XX W PRAIRIE ST DENTON TX ,33.2108511,-97.1550899,VALID,60.0
11XX E MCKINNEY ST DENTON TX ,33.2115705,-97.0875966,VALID,61.0
22XX S LOOP 288 DENTON TX ,33.1970392,-97.0919826,VALID,62.0
32XX OCEAN DR DENTON TX ,33.1444947,-97.1004986,VALID,63.0
64XX I 35 DENTON TX ,33.2802739,-97.177933,VALID,64.0
4XX E MCKINNEY ST DENTON TX ,33.2115705,-97.0875966,VALID,65.0
11XX E HICKORY ST DENTON TX ,33.2144196,-97.1253362,VALID,66.0
20XX HOUSTON PL DENTON TX ,33.2177455,-97.1561587,VALID,67.0
E OAK ST DENTON TX ,33.2153379,-97.124989,VALID,68.0
N LOCUST ST DENTON TX ,33.256469,-97.1316417,VALID,69.0
5XX S ELM ST DENTON TX ,33.2101561,-97.1337726,VALID,70.0
I 35 DENTON TX ,33.2802739,-97.177933,VALID,71.0
N LOOP 288 DENTON TX ,33.2584052,-97.1428634,VALID,72.0
20XX PAISLEY ST DENTON TX ,33.2207581,-97.1094508,VALID,73.0
1XX S ELM ST DENTON TX ,33.2101561,-97.1337726,VALID,74.0
7XX S I 35 E DENTON TX ,33.1814754,-97.102065,VALID,75.0
24XX E MCKINNEY ST DENTON TX ,33.2115705,-97.0875966,VALID,76.0
35XX OCEANVIEW DR DENTON TX ,33.1742407,-97.0786109,VALID,77.0
9XX W EAGLE DR DENTON TX ,33.206632,-97.14474,VALID,78.0
44XX I 35 DENTON TX ,33.2802739,-97.177933,VALID,79.0
21XX SPENCER RD DENTON TX ,33.1959056,-97.0987982,VALID,80.0
DALLAS DR DENTON TX ,33.1993677,-97.1242105,VALID,81.0
9XX SIERRA DR DENTON TX ,33.2479414,-97.1193666,VALID,82.0
S I 35 E DENTON TX ,33.1814754,-97.102065,VALID,83.0
4XX N BELL AVE DENTON TX ,33.2310843,-97.1272288,VALID,84.0
65XX W SHADY SHORES RD DENTON TX ,33.1640049,-97.0722153,VALID,85.0
47XX SHAGBARK DR DENTON TX ,33.1708229,-97.1663811,VALID,86.0
4XX N WOOD ST DENTON TX ,33.2179707,-97.1190058,VALID,87.0
8XX W UNIVERSITY DR DENTON TX ,33.2303119,-97.1816464,VALID,88.0
89XX I 35 DENTON TX ,33.2802739,-97.177933,VALID,89.0
28XX NOTTINGHAM DR DENTON TX ,33.2389117,-97.1066916,VALID,90.0
12XX MCDONALD DR DENTON TX ,33.2043802,-97.1176706,VALID,91.0
17XX GREENWOOD DR DENTON TX ,33.2353581,-97.1173887,VALID,92.0
25XX W HICKORY ST DENTON TX ,33.2146565,-97.1475676,VALID,93.0
10XX DALLAS DR DENTON TX ,33.1993677,-97.1242105,VALID,94.0
1XX S WOODROW LN DENTON TX ,33.2072363,-97.1120564,VALID,95.0
17XX TEASLEY LN DENTON TX ,33.1678163,-97.1103429,VALID,96.0
39XX BLACK BUTTE DR DENTON TX ,33.1522577,-97.0924374,VALID,97.0
N NORTH TEXAS BLVD DENTON TX ,33.2064112,-97.1534274,VALID,98.0
10XX S I 35 E DENTON TX ,33.1814754,-97.102065,VALID,99.0
38XX WATERFORD WAY DENTON TX ,33.1654878,-97.0883441,VALID,100.0
58XX NEW BALLINGER DR DENTON TX ,33.1404972,-97.1914758,VALID,101.0
BRINKER RD DENTON TX ,33.1883701,-97.095871,VALID,102.0
S BELL AVE DENTON TX ,33.2106727,-97.1303383,VALID,103.0
23XX W PRAIRIE ST DENTON TX ,33.2108511,-97.1550899,VALID,104.0
78XX MIRROR ROCK LN DENTON TX ,33.1440132,-97.1166313,VALID,105.0
9XX MCCORMICK ST DENTON TX ,33.1967075,-97.1474472,VALID,106.0
39XX TEASLEY LN DENTON TX ,33.1678163,-97.1103429,VALID,107.0
22XX N CARROLL BLVD DENTON TX ,33.2279879,-97.1368644,VALID,108.0
77XX ALDERS GATE LN DENTON TX ,33.1707863,-97.0588861,VALID,109.0
17XX PANHANDLE ST DENTON TX ,33.2216193,-97.1526645,VALID,110.0
15XX E MCKINNEY ST DENTON TX ,33.2115705,-97.0875966,VALID,111.0
1XX PRECISION DR DENTON TX ,33.2092495,-97.1734151,VALID,112.0
58XX GREENMEADOW DR DENTON TX ,33.1366182,-97.1922212,VALID,113.0
3XX DALLAS DR DENTON TX ,33.1993677,-97.1242105,VALID,114.0
7XX W COLLINS ST DENTON TX ,33.2041237,-97.1393456,VALID,115.0
94XX TOLEDO BEND DR DENTON TX ,33.1375329,-97.1864983,VALID,116.0
41XX SONOMA DR DENTON TX ,33.1707058,-97.173622,VALID,117.0
33XX N MASCH BRANCH RD DENTON TX ,33.2304372,-97.1972384,VALID,118.0
24XX CHARLOTTE ST DENTON TX ,33.2128177,-97.1597782,VALID,119.0
32XX TAMARACK LN DENTON TX ,33.1692002,-97.1625201,VALID,120.0
4XX CAMPBELL LN DENTON TX ,33.2181214,-97.1125522,VALID,121.0
18XX TEASLEY LN DENTON TX ,33.1678163,-97.1103429,VALID,122.0
32XX WAGON TRAIL DR DENTON TX ,33.2105967,-97.0983387,VALID,123.0
31XX BANDERA ST DENTON TX ,33.2313113,-97.1757808,VALID,124.0
19XX BURNING TREE LN DENTON TX ,33.2427004,-97.1039571,VALID,125.0
5XX S LOOP 288 DENTON TX ,33.1970392,-97.0919826,VALID,126.0
2XX W OAK ST DENTON TX ,33.2157359,-97.1545246,VALID,127.0
3XX S WOODROW LN DENTON TX ,33.2072363,-97.1120564,VALID,128.0
2XX S MAYHILL RD DENTON TX ,33.1922091,-97.0856294,VALID,129.0
7XX S ELM ST DENTON TX ,33.2101561,-97.1337726,VALID,130.0
20XX BURNING TREE LN DENTON TX ,33.2427004,-97.1039571,VALID,131.0
23XX SAN JACINTO BLVD DENTON TX ,33.1923138,-97.1093771,VALID,132.0
23XX NORTHWAY DENTON TX ,33.2381598,-97.1645905,VALID,133.0
1XX N I 35 E DENTON TX ,33.2036084,-97.1504619,VALID,134.0
32XX BROOKE ST DENTON TX ,33.2470824,-97.1365697,VALID,135.0
11XX W UNIVERSITY DR DENTON TX ,33.2303119,-97.1816464,VALID,136.0
34XX VALLEY VIEW RD DENTON TX ,33.25182,-97.1237732,VALID,137.0
14XX TEASLEY LN DENTON TX ,33.1678163,-97.1103429,VALID,138.0
W HIGHLAND ST DENTON TX ,33.2093173,-97.1443753,VALID,139.0
7XX JACKSON ST DENTON TX ,33.2074411,-97.1257632,VALID,140.0
12XX W HICKORY ST DENTON TX ,33.2146565,-97.1475676,VALID,141.0
36XX SALON CT DENTON TX ,33.1543277,-97.0965248,VALID,142.0
16XX W UNIVERSITY DR DENTON TX ,33.2303119,-97.1816464,VALID,143.0
37XX N ELM ST DENTON TX ,33.2483035,-97.1480169,VALID,144.0
28XX S I 35 E DENTON TX ,33.1814754,-97.102065,VALID,145.0
39XX N ELM ST DENTON TX ,33.2483035,-97.1480169,VALID,146.0
4XX S CARROLL BLVD DENTON TX ,33.2093664,-97.137149,VALID,147.0
30XX BOB-O-LINK LN DENTON TX ,33.2172619,-97.0957283,VALID,148.0
1XX N BONNIE BRAE ST DENTON TX ,33.2460697,-97.1605525,VALID,149.0
28XX W UNIVERSITY DR DENTON TX ,33.2303119,-97.1816464,VALID,150.0
35XX POCKRUS PAGE RD DENTON TX ,33.1709825,-97.077112,VALID,151.0
17XX N CARROLL BLVD DENTON TX ,33.2279879,-97.1368644,VALID,152.0
22XX GEORGETOWN DR DENTON TX ,33.2344678,-97.1513962,VALID,153.0
S WELCH ST DENTON TX ,33.2093173,-97.1443753,VALID,154.0
10XX WILSON ST DENTON TX ,33.2081469,-97.1208293,VALID,155.0
17XX CARLTON ST DENTON TX ,33.2248502,-97.1517201,VALID,156.0
9XX CIRCLE VIEW LN DENTON TX ,33.1547049,-97.1256458,VALID,157.0
S LOCUST ST DENTON TX ,33.2025721,-97.1335834,VALID,158.0
W OAK ST DENTON TX ,33.2157359,-97.1545246,VALID,159.0
32XX CLYDESDALE DR DENTON TX ,33.1576232,-97.0979517,VALID,160.0
1XX W HICKORY ST DENTON TX ,33.2146565,-97.1475676,VALID,161.0
16XX E MCKINNEY ST DENTON TX ,33.2115705,-97.0875966,VALID,162.0
15XX CARRIGAN LN DENTON TX ,33.2516161,-97.1440095,VALID,163.0
5XX E WINDSOR DR DENTON TX ,33.2439517,-97.1120302,VALID,164.0
11XX N LOCUST ST DENTON TX ,33.256469,-97.1316417,VALID,165.0
1XX HANN ST DENTON TX ,33.221583,-97.1311174,VALID,166.0
1XX SAWYER AVE DENTON TX ,33.2235419,-97.1311323,VALID,167.0
12XX E HICKORY ST DENTON TX ,33.2144196,-97.1253362,VALID,168.0
25XX SCRIPTURE ST DENTON TX ,33.2188813,-97.1575335,VALID,169.0
21XX STELLA ST DENTON TX ,33.2137895,-97.1586493,VALID,170.0
18XX W UNIVERSITY DR DENTON TX ,33.2303119,-97.1816464,VALID,171.0
32XX FALLMEADOW ST DENTON TX ,33.24879,-97.14066,VALID,172.0
6XX GARDENVIEW CIR DENTON TX ,33.2477881,-97.1414828,VALID,173.0
S FM 2499 DENTON TX ,33.1616795,-97.0928992,VALID,174.0
33XX FALLMEADOW ST DENTON TX ,33.24879,-97.14066,VALID,175.0
11XX S LOOP 288 DENTON TX ,33.1970392,-97.0919826,VALID,176.0
N I 35 E DENTON TX ,33.2036084,-97.1504619,VALID,177.0
8XX W EAGLE DR DENTON TX ,33.206632,-97.14474,VALID,178.0
1XX MASSEY ST DENTON TX ,33.1877312,-97.1406436,VALID,179.0
34XX JOYCE LN DENTON TX ,33.2460081,-97.1387378,VALID,180.0
3XX N RUDDELL ST DENTON TX ,33.222033,-97.1178217,VALID,181.0
23XX S LOOP 288 DENTON TX ,33.1970392,-97.0919826,VALID,182.0
29XX BRIGHTON CIR DENTON TX ,33.1717892,-97.0935499,VALID,183.0
33XX E UNIVERSITY DR DENTON TX ,33.2345383,-97.0783176,VALID,184.0
12XX W OAK ST DENTON TX ,33.2157359,-97.1545246,VALID,185.0
6XX CHAMBERS ST DENTON TX ,33.2031664,-97.127504,VALID,186.0
24XX S I 35 E DENTON TX ,33.1814754,-97.102065,VALID,187.0
20XX TEASLEY LN DENTON TX ,33.1678163,-97.1103429,VALID,188.0
11XX E UNIVERSITY DR DENTON TX ,33.2345383,-97.0783176,VALID,189.0
6XX CAMPBELL LN DENTON TX ,33.2181214,-97.1125522,VALID,190.0
13XX N MAYHILL RD DENTON TX ,33.2218988,-97.0831971,VALID,191.0
36XX CAMINO REAL TRL DENTON TX ,33.1747817,-97.0767076,VALID,192.0
42XX I 35 DENTON TX ,33.2802739,-97.177933,VALID,193.0
33XX SWISHER RD DENTON TX ,33.1298193,-97.0354104,VALID,194.0
7XX ALLISE CIR DENTON TX ,33.223191,-97.0993724,VALID,195.0
12XX E UNIVERSITY DR DENTON TX ,33.2345383,-97.0783176,VALID,196.0
27XX N BELL AVE DENTON TX ,33.2310843,-97.1272288,VALID,197.0
13XX S LOOP 288 DENTON TX ,33.1970392,-97.0919826,VALID,198.0
35XX E MCKINNEY ST DENTON TX ,33.2115705,-97.0875966,VALID,199.0
ROSELAWN DR DENTON TX ,33.1846168,-97.1479993,VALID,200.0
84XX W UNIVERSITY DR DENTON TX ,33.2303119,-97.1816464,VALID,201.0
6XX N I 35 E DENTON TX ,33.2036084,-97.1504619,VALID,202.0
6XX NORTHRIDGE ST DENTON TX ,33.2410372,-97.1394108,VALID,203.0
32XX UNICORN LAKE BLVD DENTON TX ,33.1716801,-97.0957739,VALID,204.0
50XX MILLS RD DENTON TX ,33.2152229,-97.0713378,VALID,205.0
28XX STOCKTON ST DENTON TX ,33.2301855,-97.1018769,VALID,206.0
18XX N RUDDELL ST DENTON TX ,33.222033,-97.1178217,VALID,207.0
3XX STOCKADE LN DENTON TX ,33.2105981,-97.098756,VALID,208.0
35XX SEASIDE DR DENTON TX ,33.1752685,-97.0780171,VALID,209.0
55XX SOLEDAD DR DENTON TX ,33.1720626,-97.0768019,VALID,210.0
12XX S LOOP 288 DENTON TX ,33.1970392,-97.0919826,VALID,211.0
32XX S I 35 E DENTON TX ,33.1814754,-97.102065,VALID,212.0
45XX I 35 DENTON TX ,33.2802739,-97.177933,VALID,213.0
9XX KINGS ROW DENTON TX ,33.2490386,-97.1062357,VALID,214.0
8XX E MCKINNEY ST DENTON TX ,33.2115705,-97.0875966,VALID,215.0
4XX N RUDDELL ST DENTON TX ,33.222033,-97.1178217,VALID,216.0
5XX LONDONDERRY LN DENTON TX ,33.1899152,-97.1257002,VALID,217.0
2XX S BONNIE BRAE ST DENTON TX ,33.1837027,-97.1641773,VALID,218.0
32XX HERITAGE TRL DENTON TX ,33.2245502,-97.1661732,VALID,219.0
18XX LE SAGE CT DENTON TX ,33.2520654,-97.1072638,VALID,220.0
2XX E MCKINNEY ST DENTON TX ,33.2115705,-97.0875966,VALID,221.0
CORDELL ST DENTON TX ,33.2266141,-97.1471889,VALID,222.0
11XX MALONE ST DENTON TX ,33.2281522,-97.1497076,VALID,223.0
20XX SOUTHRIDGE DR DENTON TX ,33.1855332,-97.1141978,VALID,224.0
88XX BLUE SKY LN DENTON TX ,33.1393284,-97.1140104,VALID,225.0
31XX WIND RIVER LN DENTON TX ,33.1768723,-97.1039668,VALID,226.0
21XX SADAU CT DENTON TX ,33.1889951,-97.1027203,VALID,227.0
12XX MORSE ST DENTON TX ,33.2050266,-97.1104501,VALID,228.0
2XX JOSHUA ST DENTON TX ,33.2175454,-97.0997246,VALID,229.0
28XX N LOCUST ST DENTON TX ,33.256469,-97.1316417,VALID,230.0
4XX W UNIVERSITY DR DENTON TX ,33.2303119,-97.1816464,VALID,231.0
12XX BENT OAKS CT DENTON TX ,33.1718259,-97.1120835,VALID,232.0
33XX CASA GRANDE DR DENTON TX ,33.173075,-97.1070142,VALID,233.0
12XX W UNIVERSITY DR DENTON TX ,33.2303119,-97.1816464,VALID,234.0
28XX S MAYHILL RD DENTON TX ,33.1922091,-97.0856294,VALID,235.0
38XX YELLOWSTONE PL DENTON TX ,33.2518053,-97.1199342,VALID,236.0
30XX N ELM ST DENTON TX ,33.2483035,-97.1480169,VALID,237.0
39XX STATE SCHOOL RD DENTON TX ,33.1695164,-97.0906569,VALID,238.0
24XX W PRAIRIE ST DENTON TX ,33.2108511,-97.1550899,VALID,239.0
14XX CENTRE PLACE DR DENTON TX ,33.1976901,-97.1289907,VALID,240.0
15XX I 35 W DENTON TX ,33.1648139,-97.1855749,VALID,241.0
3XX MARIETTA ST DENTON TX ,33.2172696,-97.151869,VALID,242.0
66XX GRISSOM RD DENTON TX ,33.2020935,-97.063071,VALID,243.0
1XX DUCHESS DR DENTON TX ,33.2096291,-97.0996858,VALID,244.0
8XX ALLEN ST DENTON TX ,33.2069002,-97.1285035,VALID,245.0
19XX SAM BASS BLVD DENTON TX ,33.1925527,-97.1312411,VALID,246.0
NORTH TEXAS BLVD DENTON TX ,33.2064112,-97.1534274,VALID,247.0
9XX W UNIVERSITY DR DENTON TX ,33.2303119,-97.1816464,VALID,248.0
25XX STOCKBRIDGE RD DENTON TX ,33.1839991,-97.0916819,VALID,249.0
24XX N BELL AVE DENTON TX ,33.2310843,-97.1272288,VALID,250.0
38XX INWOOD CT DENTON TX ,33.2521132,-97.1083856,VALID,251.0
39XX E MCKINNEY ST DENTON TX ,33.2115705,-97.0875966,VALID,252.0
35XX WOODTHRUSH LN DENTON TX ,33.2172858,-97.0933806,VALID,253.0
1XX W MULBERRY ST DENTON TX ,33.2135492,-97.1427608,VALID,254.0
58XX I 35 DENTON TX ,33.2802739,-97.177933,VALID,255.0
132XX I 35 DENTON TX ,33.2802739,-97.177933,VALID,256.0
28XX FORT WORTH DR DENTON TX ,33.1675471,-97.1532309,VALID,257.0
31XX WAGON TRAIL DR DENTON TX ,33.2105967,-97.0983387,VALID,258.0
5XX E EL PASEO ST DENTON TX ,33.1681658,-97.1268846,VALID,259.0
28XX N ELM ST DENTON TX ,33.2483035,-97.1480169,VALID,260.0
29XX SHORELINE DR DENTON TX ,33.1734496,-97.0992169,VALID,261.0
50XX PELICAN CT DENTON TX ,33.1743231,-97.0786659,VALID,262.0
1XX E OAK ST DENTON TX ,33.2153379,-97.124989,VALID,263.0
9XX W CONGRESS ST DENTON TX ,33.219372,-97.1407651,VALID,264.0
4XX PONDER AVE DENTON TX ,33.2194588,-97.1446415,VALID,265.0
10XX E HICKORY ST DENTON TX ,33.2144196,-97.1253362,VALID,266.0
49XX I 35 DENTON TX ,33.2802739,-97.177933,VALID,267.0
7XX OAKLAND ST DENTON TX ,33.2209425,-97.1299558,VALID,268.0
50XX TEASLEY LN DENTON TX ,33.1678163,-97.1103429,VALID,269.0
5XX OAKLAND ST DENTON TX ,33.2209425,-97.1299558,VALID,270.0
FORT WORTH DR DENTON TX ,33.194245,-97.1276202,VALID,271.0
3XX MACK DR DENTON TX ,33.2188328,-97.1059963,VALID,272.0
16XX VILLAGE EAST DR DENTON TX ,33.2341069,-97.1009876,VALID,273.0
14XX PACO TRL DENTON TX ,33.2220273,-97.1161179,VALID,274.0
32XX I 35 DENTON TX ,33.2802739,-97.177933,VALID,275.0
36XX I 35 DENTON TX ,33.2802739,-97.177933,VALID,276.0
20XX STOCKBRIDGE RD DENTON TX ,33.1839991,-97.0916819,VALID,277.0
27XX GEESLING RD DENTON TX ,33.2342478,-97.0729387,VALID,278.0
13XX BROADWAY ST DENTON TX ,33.222518,-97.1483385,VALID,279.0
16XX S LOOP 288 DENTON TX ,33.1970392,-97.0919826,VALID,280.0
35XX CRISOFORO DR DENTON TX ,33.2521413,-97.1470132,VALID,281.0
57XX BALMORHEA DR DENTON TX ,33.1376924,-97.1887055,VALID,282.0
34XX CAMINO REAL TRL DENTON TX ,33.1747817,-97.0767076,VALID,283.0
41XX BOXWOOD DR DENTON TX ,33.1723704,-97.0643787,VALID,284.0
20XX E MCKINNEY ST DENTON TX ,33.2115705,-97.0875966,VALID,285.0
10XX KINGS ROW DENTON TX ,33.2490386,-97.1062357,VALID,286.0
46XX ARGYLE LN DENTON TX ,33.1518064,-97.1545305,VALID,287.0
3XX N CARROLL BLVD DENTON TX ,33.2279879,-97.1368644,VALID,288.0
7XX S LOOP 288 DENTON TX ,33.1970392,-97.0919826,VALID,289.0
LAKEVIEW BLVD DENTON TX ,33.2257982,-97.0604461,VALID,290.0
22XX W UNIVERSITY DR DENTON TX ,33.2303119,-97.1816464,VALID,291.0
5XX W HICKORY ST DENTON TX ,33.2146565,-97.1475676,VALID,292.0
5XX S CARROLL BLVD DENTON TX ,33.2093664,-97.137149,VALID,293.0
1XX INDUSTRIAL ST DENTON TX ,33.211199,-97.1301502,VALID,294.0
13XX BAYFIELD ST DENTON TX ,33.2300635,-97.0940433,VALID,295.0
4XX CORONADO DR DENTON TX ,33.2394263,-97.1271636,VALID,296.0
35XX QUAIL CREEK DR DENTON TX ,33.1860396,-97.0939245,VALID,297.0
10XX FULTON ST DENTON TX ,33.2229049,-97.1433472,VALID,298.0
13XX FULTON ST DENTON TX ,33.2229049,-97.1433472,VALID,299.0
1XX W OAK ST DENTON TX ,33.2157359,-97.1545246,VALID,300.0
JOHNSON ST DENTON TX ,33.203311,-97.1310622,VALID,301.0
6XX W EAGLE DR DENTON TX ,33.206632,-97.14474,VALID,302.0
22XX W OAK ST DENTON TX ,33.2157359,-97.1545246,VALID,303.0
19XX DENISON ST DENTON TX ,33.2345695,-97.1357041,VALID,304.0
7XX TEXAS ST DENTON TX ,33.2222473,-97.123652,VALID,305.0
23XX W UNIVERSITY DR DENTON TX ,33.2303119,-97.1816464,VALID,306.0
37XX POCKRUS PAGE RD DENTON TX ,33.1709825,-97.077112,VALID,307.0
11XX MULKEY LN DENTON TX ,33.2215732,-97.1112194,VALID,308.0
18XX E MCKINNEY ST DENTON TX ,33.2115705,-97.0875966,VALID,309.0
8XX S I 35 E DENTON TX ,33.1814754,-97.102065,VALID,310.0
E MCKINNEY ST DENTON TX ,33.2115705,-97.0875966,VALID,311.0
9XX HILL ST DENTON TX ,33.204549,-97.1252899,VALID,312.0
30XX W UNIVERSITY DR DENTON TX ,33.2303119,-97.1816464,VALID,313.0
61XX ST JAMES PL DENTON TX ,33.1525246,-97.1003187,VALID,314.0
29XX W UNIVERSITY DR DENTON TX ,33.2303119,-97.1816464,VALID,315.0
2XX MAPLE ST DENTON TX ,33.2082019,-97.1428479,VALID,316.0
20XX CHERRYWOOD LN DENTON TX ,33.2339297,-97.1219013,VALID,317.0
6XX OAKLAND ST DENTON TX ,33.2209425,-97.1299558,VALID,318.0
22XX FORT WORTH DR DENTON TX ,33.1675471,-97.1532309,VALID,319.0
30XX PENNIMAN RD DENTON TX ,33.223932,-97.0986677,VALID,320.0
13XX WINDSTREAM ST DENTON TX ,33.2436869,-97.1233638,VALID,321.0
7XX WINDSWEPT CT DENTON TX ,33.2436994,-97.1238224,VALID,322.0
6XX WINDFIELDS ST DENTON TX ,33.2430187,-97.1241861,VALID,323.0
6XX WINDSWEPT CT DENTON TX ,33.2436994,-97.1238224,VALID,324.0
96XX JIM CHRISTAL RD DENTON TX ,33.2201562,-97.2053052,VALID,325.0
22XX SAN JACINTO BLVD DENTON TX ,33.1923138,-97.1093771,VALID,326.0
5XX FORT WORTH DR DENTON TX ,33.1675471,-97.1532309,VALID,327.0
17XX BRINKER RD DENTON TX ,33.1883701,-97.095871,VALID,328.0
12XX CLEVELAND ST DENTON TX ,33.2041349,-97.1379203,VALID,329.0
20XX FAIRMOUNT PARK DR DENTON TX ,33.1516868,-97.1099244,VALID,330.0
3XX E SYCAMORE ST DENTON TX ,33.2124371,-97.125394,VALID,331.0
17XX VILLAGE EAST DR DENTON TX ,33.2341069,-97.1009876,VALID,332.0
39XX LARIAT RD DENTON TX ,33.2357069,-97.1906173,VALID,333.0
17XX S LOOP 288 DENTON TX ,33.1970392,-97.0919826,VALID,334.0
27XX E MCKINNEY ST DENTON TX ,33.2115705,-97.0875966,VALID,335.0
56XX PARKPLACE DR DENTON TX ,33.1341609,-97.1880513,VALID,336.0
10XX E MCKINNEY ST DENTON TX ,33.2115705,-97.0875966,VALID,337.0
S CARROLL BLVD DENTON TX ,33.2093664,-97.137149,VALID,338.0
22XX JAGUAR FRISCO TX ,33.1246732,-96.80611789999999,VALID,339.0
3XX MILL ST DENTON TX ,33.2064589,-97.1280704,VALID,340.0
12XX POINSETTIA BLVD DENTON TX ,33.2543469,-97.1106221,VALID,341.0
38XX DREXEL DR DENTON TX ,33.1605368,-97.0961357,VALID,342.0
48XX ARGYLE LN DENTON TX ,33.1518064,-97.1545305,VALID,343.0
9XX BEECHWOOD DR DENTON TX ,33.168017,-97.1449429,VALID,344.0
3XX NORMAL ST DENTON TX ,33.2171112,-97.1491473,VALID,345.0
9XX CLEVELAND ST DENTON TX ,33.2041349,-97.1379203,VALID,346.0
6XX N CRAWFORD ST DENTON TX ,33.2179936,-97.120214,VALID,347.0
38XX LA MANCHA LN DENTON TX ,33.1633006,-97.1188442,VALID,348.0
29XX MONTECITO RD DENTON TX ,33.1606932,-97.1198416,VALID,349.0
10XX GREENLEE ST DENTON TX ,33.2018406,-97.1462016,VALID,350.0
34XX LIPIZZAN DR DENTON TX ,33.1516303,-97.1017658,VALID,351.0
26XX BUCKINGHAM DR DENTON TX ,33.2531312,-97.1176578,VALID,352.0
7XX LONDONDERRY LN DENTON TX ,33.1899152,-97.1257002,VALID,353.0
30XX E UNIVERSITY DR DENTON TX ,33.2345383,-97.0783176,VALID,354.0
9XX FANNIN ST DENTON TX ,33.2053796,-97.1451123,VALID,355.0
17XX N RUDDELL ST DENTON TX ,33.222033,-97.1178217,VALID,356.0
28XX DANA LN DENTON TX ,33.2213901,-97.0993495,VALID,357.0
I 35 W DENTON TX ,33.1648139,-97.1855749,VALID,358.0
33XX W UNIVERSITY DR DENTON TX ,33.2303119,-97.1816464,VALID,359.0
7XX E SHERMAN DR DENTON TX ,33.276093,-97.0962546,VALID,360.0
22XX BRINKER RD DENTON TX ,33.1883701,-97.095871,VALID,361.0
14XX DALLAS DR DENTON TX ,33.1993677,-97.1242105,VALID,362.0
44XX LAKEVIEW BLVD DENTON TX ,33.2257982,-97.0604461,VALID,363.0
33XX EVERS PKWY DENTON TX ,33.2468056,-97.1354931,VALID,364.0
8XX W SYCAMORE ST DENTON TX ,33.2126151,-97.1438642,VALID,365.0
5XX N I 35 E DENTON TX ,33.2036084,-97.1504619,VALID,366.0
38XX STUART RD DENTON TX ,33.253604,-97.1221225,VALID,367.0
24XX FORT WORTH DR DENTON TX ,33.1675471,-97.1532309,VALID,368.0
18XX SCRIPTURE ST DENTON TX ,33.2188813,-97.1575335,VALID,369.0
2XX FORT WORTH DR DENTON TX ,33.1675471,-97.1532309,VALID,370.0
12XX DALLAS DR DENTON TX ,33.1993677,-97.1242105,VALID,371.0
10XX URBAN DR DESOTO TX ,32.5723595,-96.85126,VALID,372.0
22XX W HICKORY ST DENTON TX ,33.2146565,-97.1475676,VALID,373.0
89XX GLEN FALLS LN DENTON TX ,33.1395542,-97.1150059,VALID,374.0
30XX COLORADO BLVD DENTON TX ,33.1875187,-97.1026425,VALID,375.0
15XX RINEY RD DENTON TX ,33.2490831,-97.1517612,VALID,376.0
14XX FOX HOLLOW ST DENTON TX ,33.1968736,-97.1148378,VALID,377.0
31XX DOMINION ST DENTON TX ,33.2438391,-97.0939833,VALID,378.0
4XX FORT WORTH DR DENTON TX ,33.1675471,-97.1532309,VALID,379.0
1XX Stacey Rd ALLEN TX ,33.1299329,-96.6753089,VALID,380.0
9XX N MAYHILL RD DENTON TX ,33.2218988,-97.0831971,VALID,381.0
7XX S WOODROW LN DENTON TX ,33.2072363,-97.1120564,VALID,382.0
32XX HOLLYCREEK ST DENTON TX ,33.2462577,-97.128733,VALID,383.0
3XX E HICKORY ST DENTON TX ,33.2144196,-97.1253362,VALID,384.0
14XX BERNARD ST DENTON TX ,33.2010666,-97.1416274,VALID,385.0
204XX MCMEANS DR HOUSTON TX ,29.9856747,-95.4032429,VALID,386.0
6XX JANNIE ST DENTON TX ,33.2180124,-97.1154125,VALID,387.0
16XX N CARROLL BLVD DENTON TX ,33.2279879,-97.1368644,VALID,388.0
3XX E MCKINNEY ST DENTON TX ,33.2115705,-97.0875966,VALID,389.0
3XX WESTWAY ST DENTON TX ,33.2286784,-97.139311,VALID,390.0
14XX BOLIVAR ST DENTON TX ,33.2283073,-97.1348068,VALID,391.0
2XX W HICKORY ST DENTON TX ,33.2146565,-97.1475676,VALID,392.0
9XX S MAYHILL RD DENTON TX ,33.1922091,-97.0856294,VALID,393.0
8XX MACK DR DENTON TX ,33.2188328,-97.1059963,VALID,394.0
26XX SCRIPTURE ST DENTON TX ,33.2188813,-97.1575335,VALID,395.0
17XX BERNARD ST DENTON TX ,33.2010666,-97.1416274,VALID,396.0
15XX CENTRE PLACE DR DENTON TX ,33.1976901,-97.1289907,VALID,397.0
22XX CORSAIR LN DENTON TX ,33.1646364,-97.1117778,VALID,398.0
30XX N LOCUST ST DENTON TX ,33.256469,-97.1316417,VALID,399.0
37XX JUNIPERIO ST DENTON TX ,33.1723697,-97.074372,VALID,400.0
50XX W UNIVERSITY DR DENTON TX ,33.2303119,-97.1816464,VALID,401.0
50XX DAKOTA LN DENTON TX ,33.1992175,-97.1781005,VALID,402.0
22XX WESTCOURT RD DENTON TX ,33.1963409,-97.1904954,VALID,403.0
38XX MONTECITO RD DENTON TX ,33.1606932,-97.1198416,VALID,404.0
9XX MONTEREY DR DENTON TX ,33.2462387,-97.1194223,VALID,405.0
30XX I 35 DENTON TX ,33.2802739,-97.177933,VALID,406.0
7XX JANNIE ST DENTON TX ,33.2180124,-97.1154125,VALID,407.0
19XX JASON DR DENTON TX ,33.1897491,-97.1272781,VALID,408.0
33XX BRIGHTON DR DENTON TX ,33.1713578,-97.0929285,VALID,409.0
39XX MORSE ST DENTON TX ,33.2050266,-97.1104501,VALID,410.0
15XX BELCLAIRE SAN ANTONIO TX ,29.6170062,-98.5141463,VALID,411.0
MINGO RD DENTON TX ,33.2314612,-97.1056244,VALID,412.0
32XX STATE SCHOOL RD DENTON TX ,33.1695164,-97.0906569,VALID,413.0
65XX SHADY SHORES RD DENTON TX ,33.1640049,-97.0722153,VALID,414.0
3XX S BRADSHAW ST DENTON TX ,33.2100483,-97.1215277,VALID,415.0
4XX BERNARD ST DENTON TX ,33.2010666,-97.1416274,VALID,416.0
22XX N BELL AVE DENTON TX ,33.2310843,-97.1272288,VALID,417.0
W MCKINNEY ST DENTON TX ,33.2169694,-97.1348793,VALID,418.0
4XX W PARKWAY ST DENTON TX ,33.2180686,-97.1358893,VALID,419.0
6XX SMITH ST DENTON TX ,33.2021306,-97.1270243,VALID,420.0
3XX S WOOD ST DENTON TX ,33.2129609,-97.1185275,VALID,421.0
8XX N RUDDELL ST DENTON TX ,33.222033,-97.1178217,VALID,422.0
3XX N I 35 E DENTON TX ,33.2036084,-97.1504619,VALID,423.0
34XX FALLMEADOW ST DENTON TX ,33.24879,-97.14066,VALID,424.0
S LOOP 288 DENTON TX ,33.1970392,-97.0919826,VALID,425.0
80XX SWAN PARK DR DENTON TX ,33.1421911,-97.1139245,VALID,426.0
6XX S ELM ST DENTON TX ,33.2101561,-97.1337726,VALID,427.0
52XX PEBBLE BEACH TRL DENTON TX ,33.1715847,-97.0802235,VALID,428.0
JOYCE LN DENTON TX ,33.2460081,-97.1387378,VALID,429.0
S MAYHILL RD DENTON TX ,33.1922091,-97.0856294,VALID,430.0
17XX SAM BASS BLVD DENTON TX ,33.1925527,-97.1312411,VALID,431.0
14XX SANTOS DR DENTON TX ,33.2500862,-97.1448758,VALID,432.0
GLENWOOD LN DENTON TX ,33.2382124,-97.115532,VALID,433.0
21XX BOLIVAR ST DENTON TX ,33.2283073,-97.1348068,VALID,434.0
10XX RAMEY CIR DENTON TX ,33.2036186,-97.1153014,VALID,435.0
40XX MESA DR DENTON TX ,33.2330179,-97.1769434,VALID,436.0
12XX MCCORMICK ST DENTON TX ,33.1967075,-97.1474472,VALID,437.0
12XX AVE A DENTON TX ,33.2083388,-97.1462368,VALID,438.0
9XX EGAN ST DENTON TX ,33.2203978,-97.1422526,VALID,439.0
29XX BRIERCLIFF DR DENTON TX ,33.1726111,-97.0930116,VALID,440.0
8XX W COLLINS ST DENTON TX ,33.2041237,-97.1393456,VALID,441.0
11XX AVE A DENTON TX ,33.2083388,-97.1462368,VALID,442.0
7XX CRESCENT ST DENTON TX ,33.2257629,-97.1497812,VALID,443.0
14XX E RYAN RD DENTON TX ,33.161471,-97.1246831,VALID,444.0
5XX N BELL AVE DENTON TX ,33.2310843,-97.1272288,VALID,445.0
MORSE ST DENTON TX ,33.2050266,-97.1104501,VALID,446.0
59XX GLENWOOD DR DENTON TX ,33.1705303,-97.0779894,VALID,447.0
40XX I 35 DENTON TX ,33.2802739,-97.177933,VALID,448.0
12XX PEAK ST DENTON TX ,33.2036963,-97.1425779,VALID,449.0
61XX HIGHFIELD PARK DENTON TX ,33.1531012,-97.0993787,VALID,450.0
25XX NATCHEZ TRCE DENTON TX ,33.1814864,-97.1066903,VALID,451.0
182XX MARSH LN DALLAS TX ,32.9182242,-96.8558728,VALID,452.0
N TRINITY RD DENTON TX ,33.227038,-97.0546798,VALID,453.0
31XX TOWN CENTER TRL DENTON TX ,33.2287035,-97.1694331,VALID,454.0
5XX S I 35 E DENTON TX ,33.1814754,-97.102065,VALID,455.0
4XX RUTH ST DENTON TX ,33.2053807,-97.1274001,VALID,456.0
2XX N LOOP 288 DENTON TX ,33.2584052,-97.1428634,VALID,457.0
56XX SEA COVE LN DENTON TX ,33.1776434,-97.073285,VALID,458.0
18XX GEESLING RD DENTON TX ,33.2342478,-97.0729387,VALID,459.0
13XX PANHANDLE ST DENTON TX ,33.2216193,-97.1526645,VALID,460.0
1XX W UNIVERSITY DR DENTON TX ,33.2303119,-97.1816464,VALID,461.0
20XX W HICKORY ST DENTON TX ,33.2146565,-97.1475676,VALID,462.0
23XX LONGMEADOW CT DENTON TX ,33.2174555,-97.1066865,VALID,463.0
10XX W EAGLE DR DENTON TX ,33.206632,-97.14474,VALID,464.0
AMHERST DR DENTON TX ,33.2313075,-97.149459,VALID,465.0
26XX ARABIAN AVE DENTON TX ,33.1699858,-97.104288,VALID,466.0
2XX S WOODROW LN DENTON TX ,33.2072363,-97.1120564,VALID,467.0
7XX ROSE ST DENTON TX ,33.2199077,-97.1230931,VALID,468.0
33XX STONECROP TRL DENTON TX ,33.171187,-97.1618373,VALID,469.0
16XX BRINKER RD DENTON TX ,33.1883701,-97.095871,VALID,470.0
4XX W OAK ST DENTON TX ,33.2157359,-97.1545246,VALID,471.0
31XX TEASLEY LN DENTON TX ,33.1678163,-97.1103429,VALID,472.0
10XX PARVIN ST DENTON TX ,33.1910354,-97.1518136,VALID,473.0
7XX HERCULES LN DENTON TX ,33.2541798,-97.12977,VALID,474.0
14XX LA MIRADA DENTON TX ,33.2534129,-97.1105718,VALID,475.0
1XX BERNARD ST DENTON TX ,33.2010666,-97.1416274,VALID,476.0
11XX HILL ST DENTON TX ,33.204549,-97.1252899,VALID,477.0
13XX DALLAS DR DENTON TX ,33.1993677,-97.1242105,VALID,478.0
5XX S BRADSHAW ST DENTON TX ,33.2100483,-97.1215277,VALID,479.0
21XX JASMINE ST DENTON TX ,33.1925599,-97.1590356,VALID,480.0
SWEETGATE LN DENTON TX ,33.1790368,-97.0559696,VALID,481.0
42XX S I 35 E DENTON TX ,33.1814754,-97.102065,VALID,482.0
ED ROBSON BLVD DENTON TX ,33.1511048,-97.2384521,VALID,483.0
6XX E MCKINNEY ST DENTON TX ,33.2115705,-97.0875966,VALID,484.0
28XX BARNES DR DENTON TX ,33.2220548,-97.099303,VALID,485.0
N ELM ST DENTON TX ,33.2483035,-97.1480169,VALID,486.0
4XX FOX CREEK CT DENTON TX ,33.2177906,-97.1051086,VALID,487.0
10XX SIERRA DR DENTON TX ,33.2479414,-97.1193666,VALID,488.0
2XX FOREST ST DENTON TX ,33.2339523,-97.1305686,VALID,489.0
1XX E EAGLE DR DENTON TX ,33.206632,-97.14474,VALID,490.0
7XX MULKEY LN DENTON TX ,33.2215732,-97.1112194,VALID,491.0
28XX HOLLOW RIDGE DR DENTON TX ,33.1684747,-97.1045152,VALID,492.0
17XX CRESCENT ST DENTON TX ,33.2257629,-97.1497812,VALID,493.0
30XX GROVELAND TER DENTON TX ,33.1472386,-97.1003503,VALID,494.0
10XX REED RD DENTON TX ,33.2034041,-97.1184526,VALID,495.0
9XX GREENBEND DR DENTON TX ,33.1687587,-97.1449362,VALID,496.0
27XX ARABIAN AVE DENTON TX ,33.1699858,-97.104288,VALID,497.0
2XX BLACKBERRY WAY DENTON TX ,33.1566117,-97.128993,VALID,498.0
36XX CLYDESDALE DR DENTON TX ,33.1576232,-97.0979517,VALID,499.0
3XX FRY ST DENTON TX ,33.216643,-97.1464272,VALID,500.0
5XX RETAMA ST DENTON TX ,33.25233,-97.125883,VALID,501.0
52XX PAR DR DENTON TX ,33.1792841,-97.0765968,VALID,502.0
27XX HEREFORD RD DENTON TX ,33.1692332,-97.1040616,VALID,503.0
28XX ARABIAN AVE DENTON TX ,33.1699858,-97.104288,VALID,504.0
32XX BRETON DR DENTON TX ,33.1554298,-97.101599,VALID,505.0
14XX S LOOP 288 DENTON TX ,33.1970392,-97.0919826,VALID,506.0
32XX HERRING CT DENTON TX ,33.1763498,-97.1028714,VALID,507.0
16XX W OAK ST DENTON TX ,33.2157359,-97.1545246,VALID,508.0
E RYAN RD DENTON TX ,33.161471,-97.1246831,VALID,509.0
28XX FORRESTRIDGE DR DENTON TX ,33.1689178,-97.1294577,VALID,510.0
11XX SOUTHMONT DR DENTON TX ,33.1734973,-97.1194246,VALID,511.0
32XX TEASLEY LN DENTON TX ,33.1678163,-97.1103429,VALID,512.0
25XX W UNIVERSITY DR DENTON TX ,33.2303119,-97.1816464,VALID,513.0
5XX PARK LN DENTON TX ,33.2045652,-97.1265278,VALID,514.0
27XX NORTHCREST RD DENTON TX ,33.2389959,-97.1021072,VALID,515.0
XX ROLLING HILLS CIR DENTON TX ,33.1694596,-97.1308561,VALID,516.0
9XX S LOCUST ST DENTON TX ,33.2025721,-97.1335834,VALID,517.0
8XX SUMMER OAKS DR DENTON TX ,33.2216698,-97.1048929,VALID,518.0
22XX OVERLOOK LN DENTON TX ,33.2384188,-97.1662471,VALID,519.0
15XX MALONE ST DENTON TX ,33.2281522,-97.1497076,VALID,520.0
28XX LONESOME TRL DENTON TX ,33.1524114,-97.1036136,VALID,521.0
25XX YELLOWSTONE PL DENTON TX ,33.2518053,-97.1199342,VALID,522.0
26XX HUNTINGTON DR DENTON TX ,33.2546206,-97.1187429,VALID,523.0
6XX DENTON ST DENTON TX ,33.2197983,-97.1390881,VALID,524.0
18XX E RYAN RD DENTON TX ,33.161471,-97.1246831,VALID,525.0
135XX I 35 DENTON TX ,33.2802739,-97.177933,VALID,526.0
9XX SUN VALLEY DR DENTON TX ,33.2529166,-97.1212774,VALID,527.0
LONG RD DENTON TX ,33.2635351,-97.1166163,VALID,528.0
34XX AVON DR DENTON TX ,33.2468042,-97.1145188,VALID,529.0
15XX PICKWICK LN DENTON TX ,33.2476103,-97.1104038,VALID,530.0
7XX S LOCUST ST DENTON TX ,33.2025721,-97.1335834,VALID,531.0
11XX VINE ST DENTON TX ,33.22341,-97.1261824,VALID,532.0
19XX BERNARD ST DENTON TX ,33.2010666,-97.1416274,VALID,533.0
3XX W PRAIRIE ST DENTON TX ,33.2108511,-97.1550899,VALID,534.0
40XX TUSCANY CT DENTON TX ,33.1715377,-97.1714172,VALID,535.0
47XX REDBUD DR DENTON TX ,33.1687774,-97.07157,VALID,536.0
40XX S I 35 E DENTON TX ,33.1814754,-97.102065,VALID,537.0
POST OAK DR CORINTH TX ,33.1462805,-97.0794068,VALID,538.0
13XX E MCKINNEY ST DENTON TX ,33.2115705,-97.0875966,VALID,539.0
31XX KAPPWOOD CT DENTON TX ,33.1702398,-97.1444994,VALID,540.0
25XX LOUISE ST DENTON TX ,33.211833,-97.1598019,VALID,541.0
4XX E OAK ST DENTON TX ,33.2153379,-97.124989,VALID,542.0
18XX SHADY OAKS DR DENTON TX ,33.2008585,-97.1064494,VALID,543.0
STATE SCHOOL RD DENTON TX ,33.1695164,-97.0906569,VALID,544.0
25XX TAHOE LN DENTON TX ,33.1773195,-97.1075685,VALID,545.0
28XX HOWARD CT DENTON TX ,33.22551,-97.0989711,VALID,546.0
81XX SETTLEMENT DR DENTON TX ,33.1444128,-97.1129627,VALID,547.0
18XX WESTRIDGE ST DENTON TX ,33.1981767,-97.1538513,VALID,548.0
60XX THOROUGHBRED TRL DENTON TX ,33.1538329,-97.096408,VALID,549.0
27XX N ELM ST DENTON TX ,33.2483035,-97.1480169,VALID,550.0
7XX WOLFTRAP DR DENTON TX ,33.2460767,-97.1237708,VALID,551.0
22XX HIGH MEADOW DR DENTON TX ,33.2498362,-97.1030286,VALID,552.0
2XX N BONNIE BRAE ST DENTON TX ,33.2460697,-97.1605525,VALID,553.0
11XX IMPERIAL DR DENTON TX ,33.2504713,-97.1188232,VALID,554.0
32XX MEDPARK DR DENTON TX ,33.1831293,-97.0944578,VALID,555.0
SUNSET ST DENTON TX ,33.2296642,-97.1383821,VALID,556.0
54XX SOLEDAD DR DENTON TX ,33.1720626,-97.0768019,VALID,557.0
10XX VINE ST DENTON TX ,33.22341,-97.1261824,VALID,558.0
25XX I 35 DENTON TX ,33.2802739,-97.177933,VALID,559.0
6XX FORT WORTH DR DENTON TX ,33.1675471,-97.1532309,VALID,560.0
18XX MOHICAN AVE DENTON TX ,33.2340844,-97.109846,VALID,561.0
61XX ALDERBROOK LN ARGYLE TX ,33.00926,-97.2669992,VALID,562.0
15XX NOTTINGHAM DR DENTON TX ,33.2389117,-97.1066916,VALID,563.0
19XX LOCKSLEY LN DENTON TX ,33.2398045,-97.109006,VALID,564.0
25XX N I 35 E DENTON TX ,33.2036084,-97.1504619,VALID,565.0
15XX LA MIRADA DENTON TX ,33.2534129,-97.1105718,VALID,566.0
4XX W CONGRESS ST DENTON TX ,33.219372,-97.1407651,VALID,567.0
22XX N LOCUST ST DENTON TX ,33.256469,-97.1316417,VALID,568.0
23XX WESTVIEW TRL DENTON TX ,33.2375852,-97.1689603,VALID,569.0
21XX WESTVIEW TRL DENTON TX ,33.2375852,-97.1689603,VALID,570.0
19XX COLORADO BLVD DENTON TX ,33.1875187,-97.1026425,VALID,571.0
RUSSELL ST DENTON TX ,33.2144801,-97.1296976,VALID,572.0
FRY ST DENTON TX ,33.216643,-97.1464272,VALID,573.0
12XX S WOODROW LN DENTON TX ,33.2072363,-97.1120564,VALID,574.0
23XX COLORADO BLVD DENTON TX ,33.1875187,-97.1026425,VALID,575.0
29XX COUNTRY CLUB RD DENTON TX ,33.1621985,-97.1419084,VALID,576.0
41XX E UNIVERSITY DR DENTON TX ,33.2345383,-97.0783176,VALID,577.0
14XX AUBURN DR DENTON TX ,33.2362297,-97.1506483,VALID,578.0
23XX LOOKOUT LN DENTON TX ,33.2381831,-97.1671815,VALID,579.0
4XX W SHERMAN DR DENTON TX ,33.2321132,-97.1346471,VALID,580.0
2XX ACME ST DENTON TX ,33.1947949,-97.1395737,VALID,581.0
45XX DOGWOOD DR DENTON TX ,33.1687518,-97.0723926,VALID,582.0
11XX HEARTH DR DENTON TX ,33.2384185,-97.1460158,VALID,583.0
39XX MONTECITO RD DENTON TX ,33.1606932,-97.1198416,VALID,584.0
43XX HAYES ST DENTON TX ,33.2594073,-97.1206253,VALID,585.0
2XX MATTHEW AVE DENTON TX ,33.157428,-97.1290188,VALID,586.0
STUART RD DENTON TX ,33.253604,-97.1221225,VALID,587.0
14XX ANGELINA BEND DR DENTON TX ,33.1955172,-97.1144685,VALID,588.0
20XX MARK TWAIN LN DENTON TX ,33.1478194,-97.111998,VALID,589.0
35XX COOPER BRANCH WEST DENTON TX ,33.2477432,-97.0997896,VALID,590.0
53XX I 35 DENTON TX ,33.2802739,-97.177933,VALID,591.0
7XX W SYCAMORE ST DENTON TX ,33.2126151,-97.1438642,VALID,592.0
6XX TEXAS ST DENTON TX ,33.2222473,-97.123652,VALID,593.0
20XX MISTYWOOD LN DENTON TX ,33.2371598,-97.1060725,VALID,594.0
29XX LONESOME TRL DENTON TX ,33.1524114,-97.1036136,VALID,595.0
3XX N CRAWFORD ST DENTON TX ,33.2179936,-97.120214,VALID,596.0
1XX BELLAIRE DR DENTON TX ,33.2168056,-97.0988144,VALID,597.0
70XX CRENSHAW LN DENTON TX ,33.1469968,-97.0965909,VALID,598.0
20XX W WINDSOR DR DENTON TX ,33.2402202,-97.1526306,VALID,599.0
14XX W UNIVERSITY DR DENTON TX ,33.2303119,-97.1816464,VALID,600.0
51XX E UNIVERSITY DR DENTON TX ,33.2345383,-97.0783176,VALID,601.0
13XX PACO TRL DENTON TX ,33.2220273,-97.1161179,VALID,602.0
7XX HILL ALLEY ST DENTON TX ,33.2076422,-97.1252109,VALID,603.0
5XX E HOBSON LN DENTON TX ,33.1760298,-97.1317986,VALID,604.0
65XX ALDERBROOK DR DENTON TX ,33.148481,-97.0955017,VALID,605.0
48XX N MASCH BRANCH RD DENTON TX ,33.2304372,-97.1972384,VALID,606.0
3XX CARDINAL DR DENTON TX ,33.2188503,-97.09203,VALID,607.0
17XX OAK TREE DR DENTON TX ,33.2234224,-97.11081,VALID,608.0
17XX AUDRA LN DENTON TX ,33.2246081,-97.1068564,VALID,609.0
15XX MAY ST DENTON TX ,33.2213474,-97.1154391,VALID,610.0
22XX COLORADO BLVD DENTON TX ,33.1875187,-97.1026425,VALID,611.0
23XX TAHOE LN DENTON TX ,33.1773195,-97.1075685,VALID,612.0
7XX CORONADO DR DENTON TX ,33.2394263,-97.1271636,VALID,613.0
79XX HIDDEN PATH LN DENTON TX ,33.1437801,-97.1157023,VALID,614.0
11XX PALMWOOD PL DENTON TX ,33.23373,-97.1174,VALID,615.0
19XX MALONE ST DENTON TX ,33.2281522,-97.1497076,VALID,616.0
14XX TROY H LAGRONE DR DENTON TX ,33.2125846,-97.1142222,VALID,617.0
22XX KINGSTON TRCE DENTON TX ,33.2478707,-97.1028217,VALID,618.0
10XX OAKLAND ST DENTON TX ,33.2209425,-97.1299558,VALID,619.0
1XX FRY ST DENTON TX ,33.216643,-97.1464272,VALID,620.0
4XX E UNIVERSITY DR DENTON TX ,33.2345383,-97.0783176,VALID,621.0
52XX GAELIC CT DENTON TX ,33.2070096,-97.0761424,VALID,622.0
45XX BAYTREE AVE DENTON TX ,33.1689379,-97.0694028,VALID,623.0
6XX W COLLINS ST DENTON TX ,33.2041237,-97.1393456,VALID,624.0
32XX TOWN CENTER TRL DENTON TX ,33.2287035,-97.1694331,VALID,625.0
1XX N LOCUST ST DENTON TX ,33.256469,-97.1316417,VALID,626.0
9XX TALLAHASSEE DR DENTON TX ,33.2264717,-97.086253,VALID,627.0
5XX S LOCUST ST DENTON TX ,33.2025721,-97.1335834,VALID,628.0
7XX WOODLAND ST DENTON TX ,33.2320287,-97.1263603,VALID,629.0
TIMBERGREEN CIR DENTON TX ,33.1724816,-97.1310693,VALID,630.0
22XX PARKSIDE DR DENTON TX ,33.2363008,-97.1533791,VALID,631.0
7XX PENNSYLVANIA DR DENTON TX ,33.1826901,-97.1178826,VALID,632.0
17XX RINEY RD DENTON TX ,33.2490831,-97.1517612,VALID,633.0
26XX N LOCUST ST DENTON TX ,33.256469,-97.1316417,VALID,634.0
9XX N CARROLL BLVD DENTON TX ,33.2279879,-97.1368644,VALID,635.0
9XX ABBOTS LN DENTON TX ,33.1765347,-97.1210227,VALID,636.0
9XX LONDONDERRY LN DENTON TX ,33.1899152,-97.1257002,VALID,637.0
20XX GEORGETOWN DR DENTON TX ,33.2344678,-97.1513962,VALID,638.0
20XX N LOCUST ST DENTON TX ,33.256469,-97.1316417,VALID,639.0
37XX ALLISON DR DENTON TX ,33.2546552,-97.1451681,VALID,640.0
50XX PAR DR DENTON TX ,33.1792841,-97.0765968,VALID,641.0
20XX WOODBROOK ST DENTON TX ,33.186853,-97.1205599,VALID,642.0
22XX N ELM ST DENTON TX ,33.2483035,-97.1480169,VALID,643.0
2XX MOUNTS AVE DENTON TX ,33.2175142,-97.1403887,VALID,644.0
20XX LESLIE ST DENTON TX ,33.1934496,-97.1429921,VALID,645.0
23XX N LOCUST ST DENTON TX ,33.256469,-97.1316417,VALID,646.0
77XX MOSSPOINT CT DENTON TX ,33.1463847,-97.1120143,VALID,647.0
25XX CHARLOTTE ST DENTON TX ,33.2128177,-97.1597782,VALID,648.0
14XX MALONE ST DENTON TX ,33.2281522,-97.1497076,VALID,649.0
10XX LYNHURST LN DENTON TX ,33.1807543,-97.1172597,VALID,650.0
20XX CRESTMEADOW ST DENTON TX ,33.2375765,-97.1681007,VALID,651.0
21XX WOODBROOK ST DENTON TX ,33.186853,-97.1205599,VALID,652.0
6XX PENNSYLVANIA DR DENTON TX ,33.1826901,-97.1178826,VALID,653.0
14XX PANHANDLE ST DENTON TX ,33.2216193,-97.1526645,VALID,654.0
9XX LYNHURST LN DENTON TX ,33.1807543,-97.1172597,VALID,655.0
8XX BLUEBONNET PL DENTON TX ,33.2438181,-97.1214528,VALID,656.0
32XX AIRPORT RD DENTON TX ,33.2016344,-97.178521,VALID,657.0
3XX E EL PASEO ST DENTON TX ,33.1681658,-97.1268846,VALID,658.0
13XX WILSON ST DENTON TX ,33.2081469,-97.1208293,VALID,659.0
13XX KENDOLPH DR DENTON TX ,33.1998148,-97.1520057,VALID,660.0
12XX KENDOLPH DR DENTON TX ,33.1998148,-97.1520057,VALID,661.0
14XX KENDOLPH DR DENTON TX ,33.1998148,-97.1520057,VALID,662.0
17XX HIGHLAND PARK RD DENTON TX ,33.1971195,-97.1548181,VALID,663.0
18XX KENDOLPH DR DENTON TX ,33.1998148,-97.1520057,VALID,664.0
14XX SAN GABRIEL DR DENTON TX ,33.1940517,-97.1150861,VALID,665.0
19XX SPENCER RD DENTON TX ,33.1959056,-97.0987982,VALID,666.0
5XX W COLLINS ST DENTON TX ,33.2041237,-97.1393456,VALID,667.0
12XX CRESCENT ST DENTON TX ,33.2257629,-97.1497812,VALID,668.0
8XX SKYLARK DR DENTON TX ,33.1799039,-97.1208419,VALID,669.0
31XX PINEHURST CT DENTON TX ,33.1702284,-97.1425396,VALID,670.0
32XX E UNIVERSITY DR DENTON TX ,33.2345383,-97.0783176,VALID,671.0
17XX W UNIVERSITY DR DENTON TX ,33.2303119,-97.1816464,VALID,672.0
1XX DENTON ST DENTON TX ,33.2197983,-97.1390881,VALID,673.0
17XX WILLOWWOOD ST DENTON TX ,33.1963499,-97.15154,VALID,674.0
1XX E WINDSOR DR DENTON TX ,33.2439517,-97.1120302,VALID,675.0
41XX DARIEN PL DENTON TX ,33.1560771,-97.1091038,VALID,676.0
1XX HERITAGE LN DENTON TX ,33.2379975,-97.1304813,VALID,677.0
25XX ROBINWOOD LN DENTON TX ,33.2376615,-97.1177146,VALID,678.0
36XX E MCKINNEY ST DENTON TX ,33.2115705,-97.0875966,VALID,679.0
87XX SEVEN OAKS LN DENTON TX ,33.1416371,-97.1183191,VALID,680.0
20XX SPINNAKER DR DENTON TX ,33.1685154,-97.1149344,VALID,681.0
6XX W PARKWAY ST DENTON TX ,33.2180686,-97.1358893,VALID,682.0
6XX PERSHING DR DENTON TX ,33.25721,-97.1235399,VALID,683.0
2XX WELLINGTON OAKS PL DENTON TX ,33.1651706,-97.1296686,VALID,684.0
14XX S AVE C DENTON TX ,33.207115,-97.1508123,VALID,685.0
23XX MERCEDES RD DENTON TX ,33.1932688,-97.1449557,VALID,686.0
22XX JACQUELINE DR DENTON TX ,33.1932487,-97.1440092,VALID,687.0
61XX MOOR HEN DR DENTON TX ,33.1704265,-97.0752275,VALID,688.0
56XX Bryant Irvin Rd FT WORTH TX ,32.6714416,-97.4192908,VALID,689.0
76XX SUNBURST TRL DENTON TX ,33.1507568,-97.1264985,VALID,690.0
5XX N LOOP 288 DENTON TX ,33.2584052,-97.1428634,VALID,691.0
3XX AUDRA LN DENTON TX ,33.2246081,-97.1068564,VALID,692.0
17XX POST OAK CT DENTON TX ,33.2241791,-97.1119486,VALID,693.0
19XX BRINKER RD DENTON TX ,33.1883701,-97.095871,VALID,694.0
18XX BRINKER RD DENTON TX ,33.1883701,-97.095871,VALID,695.0
11XX COLLIER ST DENTON TX ,33.2051132,-97.1494709,VALID,696.0
1XX W EL PASEO ST DENTON TX ,33.1682503,-97.1343516,VALID,697.0
62XX ST JAMES PL DENTON TX ,33.1525246,-97.1003187,VALID,698.0
61XX COUNTESS LN DENTON TX ,33.1530525,-97.0982928,VALID,699.0
9XX AUTUMN OAK DR DENTON TX ,33.2233484,-97.1136203,VALID,700.0
9XX LAGUNA DR DENTON TX ,33.2487756,-97.1193322,VALID,701.0
25XX HINKLE DR DENTON TX ,33.2360943,-97.1444733,VALID,702.0
22XX VANDERBILT CT DENTON TX ,33.2379197,-97.1503198,VALID,703.0
26XX HEREFORD RD DENTON TX ,33.1692332,-97.1040616,VALID,704.0
28XX JOSHUA ST DENTON TX ,33.2175454,-97.0997246,VALID,705.0
28XX AIRPORT FWY BEDFORD TX ,32.8373476,-97.1333455,VALID,706.0
SCRIPTURE ST DENTON TX ,33.2188813,-97.1575335,VALID,707.0
10XX KEYSTONE CT DENTON TX ,33.2684187,-97.1230026,VALID,708.0
14XX N LOCUST ST DENTON TX ,33.256469,-97.1316417,VALID,709.0
19XX WESTWOOD DR DENTON TX ,33.1941786,-97.1458733,VALID,710.0
14XX SOMBRA VISTA DR DENTON TX ,33.2005838,-97.127584,VALID,711.0
7XX THOMAS ST DENTON TX ,33.2220385,-97.1586753,VALID,712.0
31XX BROKEN ARROW RD DENTON TX ,33.2446218,-97.1034934,VALID,713.0
9XX FORT WORTH DR DENTON TX ,33.1675471,-97.1532309,VALID,714.0
5XX W OAK ST DENTON TX ,33.2157359,-97.1545246,VALID,715.0
AMARILLO ST DENTON TX ,33.2192471,-97.1422904,VALID,716.0
17XX MISTYWOOD LN DENTON TX ,33.2371598,-97.1060725,VALID,717.0
17XX BROADWAY ST DENTON TX ,33.222518,-97.1483385,VALID,718.0
2XX WILLOW STONE ST DENTON TX ,33.2520491,-97.1296199,VALID,719.0
6XX S MAYHILL RD DENTON TX ,33.1922091,-97.0856294,VALID,720.0
7XX KINGS ROW DENTON TX ,33.2490386,-97.1062357,VALID,721.0
72XX LIVINGSTON DR DENTON TX ,33.1488566,-97.1107664,VALID,722.0
20XX MALONE ST DENTON TX ,33.2281522,-97.1497076,VALID,723.0
WESTWAY ST DENTON TX ,33.2286784,-97.139311,VALID,724.0
1XX S CRAWFORD ST DENTON TX ,33.2130244,-97.1197304,VALID,725.0
3XX W EAGLE DR DENTON TX ,33.206632,-97.14474,VALID,726.0
14XX EUFEMIA DR DENTON TX ,33.2508317,-97.1440301,VALID,727.0
2XX BERNARD ST DENTON TX ,33.2010666,-97.1416274,VALID,728.0
31XX S I 35 E DENTON TX ,33.1814754,-97.102065,VALID,729.0
6XX MYRTLE ST DENTON TX ,33.2050727,-97.1350973,VALID,730.0
7XX EMERY ST DENTON TX ,33.2283873,-97.1497,VALID,731.0
14XX E UNIVERSITY DR DENTON TX ,33.2345383,-97.0783176,VALID,732.0
20XX WINDSOR FARMS DR DENTON TX ,33.2385452,-97.1725529,VALID,733.0
N CEDAR ST DENTON TX ,33.2155738,-97.134318,VALID,734.0
18XX WESTMINSTER ST DENTON TX ,33.19092,-97.1217059,VALID,735.0
13XX TEASLEY LN DENTON TX ,33.1678163,-97.1103429,VALID,736.0
36XX SUNNYDALE LN DENTON TX ,33.2518515,-97.12275,VALID,737.0
11XX AILEEN ST DENTON TX ,33.2242761,-97.1533362,VALID,738.0
11XX PIN OAK DR DENTON TX ,33.224362,-97.1127853,VALID,739.0
EGAN ST DENTON TX ,33.2203978,-97.1422526,VALID,740.0
7XX PARK LN DENTON TX ,33.2045652,-97.1265278,VALID,741.0
33XX HUDSONWOOD DR DENTON TX ,33.1846608,-97.0928243,VALID,742.0
3XX S CRAWFORD ST DENTON TX ,33.2130244,-97.1197304,VALID,743.0
5XX ALEGRE VISTA DR DENTON TX ,33.2000181,-97.1266125,VALID,744.0
3XX W HICKORY ST DENTON TX ,33.2146565,-97.1475676,VALID,745.0
1XX S AVE G DENTON TX ,33.2122342,-97.1579955,VALID,746.0
9XX OAKLAND ST DENTON TX ,33.2209425,-97.1299558,VALID,747.0
5XX BRYAN ST DENTON TX ,33.2207835,-97.1475497,VALID,748.0
17XX SHADY OAKS DR DENTON TX ,33.2008585,-97.1064494,VALID,749.0
8XX LAGUNA DR DENTON TX ,33.2487756,-97.1193322,VALID,750.0
25XX FORT WORTH DR DENTON TX ,33.1675471,-97.1532309,VALID,751.0
24XX KARIBA LN DENTON TX ,33.1764045,-97.106458,VALID,752.0
63XX BARBERRY AVE DENTON TX ,33.1701643,-97.0686016,VALID,753.0
11XX CORDELL ST DENTON TX ,33.2266141,-97.1471889,VALID,754.0
21XX KAYEWOOD DR DENTON TX ,33.2343372,-97.118504,VALID,755.0
24XX KINGSTON TRCE DENTON TX ,33.2478707,-97.1028217,VALID,756.0
58XX BLAGG RD DENTON TX ,33.2284117,-97.0684926,VALID,757.0
5XX SMITH ST DENTON TX ,33.2021306,-97.1270243,VALID,758.0
38XX CAMELOT ST DENTON TX ,33.2547572,-97.1235202,VALID,759.0
15XX TEASLEY LN DENTON TX ,33.1678163,-97.1103429,VALID,760.0
21XX ROBINWOOD LN DENTON TX ,33.2376615,-97.1177146,VALID,761.0
23XX N BONNIE BRAE ST DENTON TX ,33.2460697,-97.1605525,VALID,762.0
23XX KINGSTON TRCE DENTON TX ,33.2478707,-97.1028217,VALID,763.0
23XX STELLA ST DENTON TX ,33.2137895,-97.1586493,VALID,764.0
35XX COOPER BRANCH EAST DENTON TX ,33.2468842,-97.098685,VALID,765.0
29XX STATE SCHOOL RD DENTON TX ,33.1695164,-97.0906569,VALID,766.0
E HICKORY ST DENTON TX ,33.2144196,-97.1253362,VALID,767.0
22XX ROBINWOOD LN DENTON TX ,33.2376615,-97.1177146,VALID,768.0
14XX E WINDSOR DR DENTON TX ,33.2439517,-97.1120302,VALID,769.0
12XX BROADWAY ST DENTON TX ,33.222518,-97.1483385,VALID,770.0
3XX CASIE CT DENTON TX ,33.2444678,-97.1366922,VALID,771.0
63XX W SHADY SHORES RD DENTON TX ,33.1640049,-97.0722153,VALID,772.0
22XX MCCORMICK ST DENTON TX ,33.1967075,-97.1474472,VALID,773.0
21XX W UNIVERSITY DR DENTON TX ,33.2303119,-97.1816464,VALID,774.0
21XX JAMES ST DENTON TX ,33.1820245,-97.141914,VALID,775.0
RIO RD DENTON TX ,33.1738283,-97.0723368,VALID,776.0
23XX ROBINWOOD LN DENTON TX ,33.2376615,-97.1177146,VALID,777.0
9XX N LOOP 288 DENTON TX ,33.2584052,-97.1428634,VALID,778.0
8XX S WOODROW LN DENTON TX ,33.2072363,-97.1120564,VALID,779.0
34XX HUISACHE ST DENTON TX ,33.2501979,-97.1265178,VALID,780.0
CRESCENT ST DENTON TX ,33.2257629,-97.1497812,VALID,781.0
63XX SHADY SHORES RD DENTON TX ,33.1640049,-97.0722153,VALID,782.0
N BELL AVE DENTON TX ,33.2310843,-97.1272288,VALID,783.0
21XX JACQUELINE DR DENTON TX ,33.1932487,-97.1440092,VALID,784.0
19XX JACQUELINE DR DENTON TX ,33.1932487,-97.1440092,VALID,785.0
2XX JAGOE ST DENTON TX ,33.2174969,-97.1505839,VALID,786.0
21XX MERCEDES RD DENTON TX ,33.1932688,-97.1449557,VALID,787.0
17XX EMERY ST DENTON TX ,33.2283873,-97.1497,VALID,788.0
11XX BISHOPS PARK ST DENTON TX ,33.1773845,-97.1185057,VALID,789.0
23XX WILDWOOD LN DENTON TX ,33.1588826,-97.1068598,VALID,790.0
28XX AIRPORT RD DENTON TX ,33.2016344,-97.178521,VALID,791.0
32XX WINDBROOK CT DENTON TX ,33.2496941,-97.1287341,VALID,792.0
E SYCAMORE ST DENTON TX ,33.2124371,-97.125394,VALID,793.0
36XX S I 35 E DENTON TX ,33.1814754,-97.102065,VALID,794.0
7XX MYRTLE ST DENTON TX ,33.2050727,-97.1350973,VALID,795.0
BOARDWALK LN DENTON TX ,33.2038741,-97.12626,VALID,796.0
11XX NEFF ST DENTON TX ,33.2027685,-97.1446823,VALID,797.0
4XX MIMOSA DR DENTON TX ,33.2392851,-97.139075,VALID,798.0
11XX W CONGRESS ST DENTON TX ,33.219372,-97.1407651,VALID,799.0
11XX SPRINGCREEK DR DENTON TX ,33.1672742,-97.1449504,VALID,800.0
14XX CARRIGAN LN DENTON TX ,33.2516161,-97.1440095,VALID,801.0
17XX MERCEDES RD DENTON TX ,33.1932688,-97.1449557,VALID,802.0
4XX FULTON ST DENTON TX ,33.2229049,-97.1433472,VALID,803.0
35XX MONTECITO RD DENTON TX ,33.1606932,-97.1198416,VALID,804.0
40XX ROXBURY ST DENTON TX ,33.1587421,-97.111457,VALID,805.0
W EAGLE DR DENTON TX ,33.206632,-97.14474,VALID,806.0
1XX HOLLYHILL LN DENTON TX ,33.1882245,-97.1148274,VALID,807.0
3XX W MCKINNEY ST DENTON TX ,33.2169694,-97.1348793,VALID,808.0
28XX HEREFORD RD DENTON TX ,33.1692332,-97.1040616,VALID,809.0
10XX E SYCAMORE ST DENTON TX ,33.2124371,-97.125394,VALID,810.0
35XX HUISACHE ST DENTON TX ,33.2501979,-97.1265178,VALID,811.0
17XX SCRIPTURE ST DENTON TX ,33.2188813,-97.1575335,VALID,812.0
4XX BRYAN ST DENTON TX ,33.2207835,-97.1475497,VALID,813.0
BOLIVAR ST DENTON TX ,33.2283073,-97.1348068,VALID,814.0
7XX SUNSET ST DENTON TX ,33.2296642,-97.1383821,VALID,815.0
32XX CAMINO REAL TRL DENTON TX ,33.1747817,-97.0767076,VALID,816.0
4XX N BRADSHAW ST DENTON TX ,33.2174708,-97.1214186,VALID,817.0
4XX W PRAIRIE ST DENTON TX ,33.2108511,-97.1550899,VALID,818.0
8XX ANDERSON ST DENTON TX ,33.2179648,-97.1412299,VALID,819.0
11XX TEASLEY LN DENTON TX ,33.1678163,-97.1103429,VALID,820.0
4XX W HIGHLAND ST DENTON TX ,33.2093173,-97.1443753,VALID,821.0
3XX EVERS WAY DENTON TX ,33.2528474,-97.1340111,VALID,822.0
3XX E WINDSOR DR DENTON TX ,33.2439517,-97.1120302,VALID,823.0
24XX W OAK ST DENTON TX ,33.2157359,-97.1545246,VALID,824.0
13XX LINDSEY ST DENTON TX ,33.1987727,-97.1450131,VALID,825.0
42XX MESA DR DENTON TX ,33.2330179,-97.1769434,VALID,826.0
MYRTLE ST DENTON TX ,33.2050727,-97.1350973,VALID,827.0
N CARROLL BLVD DENTON TX ,33.2279879,-97.1368644,VALID,828.0
53XX ABBY WAY DENTON TX ,33.20407,-97.0756936,VALID,829.0
25XX STELLA ST DENTON TX ,33.2137895,-97.1586493,VALID,830.0
4XX E HICKORY ST DENTON TX ,33.2144196,-97.1253362,VALID,831.0
7XX COOK ST DENTON TX ,33.2064939,-97.1296122,VALID,832.0
2XX E HICKORY ST DENTON TX ,33.2144196,-97.1253362,VALID,833.0
8XX LONDONDERRY LN DENTON TX ,33.1899152,-97.1257002,VALID,834.0
21XX CHERRYWOOD LN DENTON TX ,33.2339297,-97.1219013,VALID,835.0
W COLLINS ST DENTON TX ,33.2041237,-97.1393456,VALID,836.0
13XX NORMAN ST DENTON TX ,33.2029627,-97.1435946,VALID,837.0
COFFEY DR DENTON TX ,33.241932,-97.1675839,VALID,838.0
2XX W RYAN RD DENTON TX ,33.1615388,-97.1350524,VALID,839.0
11XX SHADY OAKS DR DENTON TX ,33.2008585,-97.1064494,VALID,840.0
24XX W UNIVERSITY DR DENTON TX ,33.2303119,-97.1816464,VALID,841.0
20XX LAMPREY CIR DENTON TX ,33.1753969,-97.1107803,VALID,842.0
4XX E SHERMAN DR DENTON TX ,33.276093,-97.0962546,VALID,843.0
43XX I 35 DENTON TX ,33.2802739,-97.177933,VALID,844.0
8XX S ELM ST DENTON TX ,33.2101561,-97.1337726,VALID,845.0
22XX FOWLER DR DENTON TX ,33.2355071,-97.129852,VALID,846.0
20XX AZALEA ST DENTON TX ,33.1924699,-97.1571325,VALID,847.0
39XX S I 35 E DENTON TX ,33.1814754,-97.102065,VALID,848.0
23XX PARKSIDE DR DENTON TX ,33.2363008,-97.1533791,VALID,849.0
15XX LONG RD DENTON TX ,33.2635351,-97.1166163,VALID,850.0
6XX N LOOP 288 DENTON TX ,33.2584052,-97.1428634,VALID,851.0
8XX SUNSET ST DENTON TX ,33.2296642,-97.1383821,VALID,852.0
E SHERMAN DR DENTON TX ,33.276093,-97.0962546,VALID,853.0
2XX EVERS WAY DENTON TX ,33.2528474,-97.1340111,VALID,854.0
3XX CORONADO DR DENTON TX ,33.2394263,-97.1271636,VALID,855.0
VINTAGE BLVD DENTON TX ,33.1701268,-97.168938,VALID,856.0
7XX LAKEY ST DENTON TX ,33.2082911,-97.1241868,VALID,857.0
14XX I 35 W DENTON TX ,33.1648139,-97.1855749,VALID,858.0
21XX MCCORMICK ST DENTON TX ,33.1967075,-97.1474472,VALID,859.0
8XX N BELL AVE DENTON TX ,33.2310843,-97.1272288,VALID,860.0
1XX N LOOP 288 DENTON TX ,33.2584052,-97.1428634,VALID,861.0
81XX MONTECITO DR DENTON TX ,33.1606932,-97.1198416,VALID,862.0
11XX W HICKORY ST DENTON TX ,33.2146565,-97.1475676,VALID,863.0
6XX E SHERMAN DR DENTON TX ,33.276093,-97.0962546,VALID,864.0
15XX BROADWAY ST DENTON TX ,33.222518,-97.1483385,VALID,865.0
XX HIGHVIEW CIR DENTON TX ,33.175364,-97.131045,VALID,866.0
19XX CORDELL ST DENTON TX ,33.2266141,-97.1471889,VALID,867.0
22XX PEMBROOKE PL DENTON TX ,33.1845884,-97.1215578,VALID,868.0
70XX EDWARDS RD DENTON TX ,33.1780772,-97.0726157,VALID,869.0
S BONNIE BRAE ST DENTON TX ,33.1837027,-97.1641773,VALID,870.0
9XX GREENLEE ST DENTON TX ,33.2018406,-97.1462016,VALID,871.0
27XX BROOKFIELD LN DENTON TX ,33.2398117,-97.1133677,VALID,872.0
9XX W HICKORY ST DENTON TX ,33.2146565,-97.1475676,VALID,873.0
1XX S WOOD ST DENTON TX ,33.2129609,-97.1185275,VALID,874.0
99XX I 35 W DENTON TX ,33.1648139,-97.1855749,VALID,875.0
2XX W UNIVERSITY DR DENTON TX ,33.2303119,-97.1816464,VALID,876.0
25XX BRINKER RD DENTON TX ,33.1883701,-97.095871,VALID,877.0
19XX MERCEDES RD DENTON TX ,33.1932688,-97.1449557,VALID,878.0
76XX SHOAL BND DENTON TX ,33.1452221,-97.11118,VALID,879.0
24XX GREAT BEAR LN DENTON TX ,33.1787066,-97.1083438,VALID,880.0
35XX BRIERCLIFF DR DENTON TX ,33.1726111,-97.0930116,VALID,881.0
13XX CORDELL ST DENTON TX ,33.2266141,-97.1471889,VALID,882.0
19XX JASMINE ST DENTON TX ,33.1925599,-97.1590356,VALID,883.0
3XX N LOOP 288 DENTON TX ,33.2584052,-97.1428634,VALID,884.0
20XX CAMELLIA ST DENTON TX ,33.1923099,-97.1580815,VALID,885.0
6XX SUNSET ST DENTON TX ,33.2296642,-97.1383821,VALID,886.0
3XX WITHERS ST DENTON TX ,33.2211301,-97.1277038,VALID,887.0
24XX MCCORMICK ST DENTON TX ,33.1967075,-97.1474472,VALID,888.0
14XX MOSSCREEK DR DENTON TX ,33.1704186,-97.148078,VALID,889.0
7XX E MCKINNEY ST DENTON TX ,33.2115705,-97.0875966,VALID,890.0
41XX FANITA PL DENTON TX ,33.1572757,-97.1128767,VALID,891.0
14XX MARGIE ST DENTON TX ,33.2047274,-97.1473444,VALID,892.0
33XX CLYDESDALE DR DENTON TX ,33.1576232,-97.0979517,VALID,893.0
3XX N LOCUST ST DENTON TX ,33.256469,-97.1316417,VALID,894.0
31XX LIPIZZAN DR DENTON TX ,33.1516303,-97.1017658,VALID,895.0
21XX OAK TREE DR DENTON TX ,33.2234224,-97.11081,VALID,896.0
9XX MACK PL DENTON TX ,33.2228729,-97.1077003,VALID,897.0
1XX S BONNIE BRAE ST DENTON TX ,33.1837027,-97.1641773,VALID,898.0
34XX QUAIL CREEK DR DENTON TX ,33.1860396,-97.0939245,VALID,899.0
11XX FULTON ST DENTON TX ,33.2229049,-97.1433472,VALID,900.0
31XX INGLEWOOD ST DENTON TX ,33.2441893,-97.1285929,VALID,901.0
31XX CEDAR HILL ST DENTON TX ,33.2445787,-97.1276329,VALID,902.0
94XX E SHERMAN DR DENTON TX ,33.276093,-97.0962546,VALID,903.0
28XX COUNTRY CLUB RD DENTON TX ,33.1621985,-97.1419084,VALID,904.0
4XX W HICKORY ST DENTON TX ,33.2146565,-97.1475676,VALID,905.0
20XX DOECREST DR DENTON TX ,33.1463847,-97.1120143,VALID,906.0
11XX VISTA VERDE ST DENTON TX ,33.1485336,-97.1192045,VALID,907.0
5XX N CARROLL BLVD DENTON TX ,33.2279879,-97.1368644,VALID,908.0
E UNIVERSITY DR DENTON TX ,33.2345383,-97.0783176,VALID,909.0
21XX WINTHROP HILL RD DENTON TX ,33.1585859,-97.1554732,VALID,910.0
19XX WISTERIA ST DENTON TX ,33.1944685,-97.1561115,VALID,911.0
31XX ARMSTRONG ST DENTON TX ,33.2428183,-97.0954774,VALID,912.0
22XX WINDHAVEN DR DENTON TX ,33.1441532,-97.1079133,VALID,913.0
1XX E PRAIRIE ST DENTON TX ,33.2105793,-97.1259592,VALID,914.0
10XX THOMAS ST DENTON TX ,33.2220385,-97.1586753,VALID,915.0
9XX KERLEY ST DENTON TX ,33.2031783,-97.1193746,VALID,916.0
38XX HARVEST GLEN DR DENTON TX ,33.2515599,-97.104961,VALID,917.0
33XX NOTTINGHAM DR DENTON TX ,33.2389117,-97.1066916,VALID,918.0
7XX DALLAS DR DENTON TX ,33.1993677,-97.1242105,VALID,919.0
16XX DALLAS DR DENTON TX ,33.1993677,-97.1242105,VALID,920.0
24XX ACORN BND DENTON TX ,33.142626,-97.1087981,VALID,921.0
57XX THOROUGHBRED TRL DENTON TX ,33.1538329,-97.096408,VALID,922.0
13XX MYRTLE ST DENTON TX ,33.2050727,-97.1350973,VALID,923.0
6XX W CONGRESS ST DENTON TX ,33.219372,-97.1407651,VALID,924.0
47XX LOIRE CT DENTON TX ,33.1716411,-97.1757262,VALID,925.0
8XX IOOF ST DENTON TX ,33.2088246,-97.1402446,VALID,926.0
15XX MISTYWOOD LN DENTON TX ,33.2371598,-97.1060725,VALID,927.0
14XX E MCKINNEY ST DENTON TX ,33.2115705,-97.0875966,VALID,928.0
COOPER CREEK RD DENTON TX ,33.2430055,-97.0817486,VALID,929.0
1XX MILL POND RD DENTON TX ,33.2407783,-97.0976352,VALID,930.0
15XX WAYNE ST DENTON TX ,33.2263648,-97.1126765,VALID,931.0
24XX ROBIN CIR DENTON TX ,33.2364377,-97.1070871,VALID,932.0
WESTWOOD DR DENTON TX ,33.1941786,-97.1458733,VALID,933.0
18XX HINKLE DR DENTON TX ,33.2360943,-97.1444733,VALID,934.0
79XX SWAN PARK DR DENTON TX ,33.1421911,-97.1139245,VALID,935.0
75XX RIVERCHASE TRL DENTON TX ,33.1527211,-97.1246769,VALID,936.0
11XX PALO VERDE DR DENTON TX ,33.1503336,-97.1175556,VALID,937.0
17XX PALO VERDE DR DENTON TX ,33.1503336,-97.1175556,VALID,938.0
17XX BOYD ST DENTON TX ,33.2296394,-97.1127991,VALID,939.0
33XX WIND RIVER LN DENTON TX ,33.1768723,-97.1039668,VALID,940.0
21XX FAIRMOUNT PARK DR DENTON TX ,33.1516868,-97.1099244,VALID,941.0
7XX EL CIELITO ST DENTON TX ,33.1697665,-97.120668,VALID,942.0
14XX E SHERMAN DR DENTON TX ,33.276093,-97.0962546,VALID,943.0
23XX N MASCH BRANCH RD DENTON TX ,33.2304372,-97.1972384,VALID,944.0
24XX LESLIE ST DENTON TX ,33.1934496,-97.1429921,VALID,945.0
6XX BOARDWALK LN DENTON TX ,33.2038741,-97.12626,VALID,946.0
37XX E MCKINNEY ST DENTON TX ,33.2115705,-97.0875966,VALID,947.0
16XX COOPER CREEK RD DENTON TX ,33.2430055,-97.0817486,VALID,948.0
28XX COLORADO BLVD DENTON TX ,33.1875187,-97.1026425,VALID,949.0
13XX E SHERMAN DR DENTON TX ,33.276093,-97.0962546,VALID,950.0
3XX W SHERMAN DR DENTON TX ,33.2321132,-97.1346471,VALID,951.0
10XX FORT WORTH DR DENTON TX ,33.1675471,-97.1532309,VALID,952.0
3XX W OAK ST DENTON TX ,33.2157359,-97.1545246,VALID,953.0
6XX WAINWRIGHT ST DENTON TX ,33.2098783,-97.131359,VALID,954.0
15XX OAKWOOD DR DENTON TX ,33.1975666,-97.1468746,VALID,955.0
8XX W HICKORY ST DENTON TX ,33.2146565,-97.1475676,VALID,956.0
33XX ANYSA LN DENTON TX ,33.2264223,-97.0971391,VALID,957.0
15XX KNIGHT ST DENTON TX ,33.2005887,-97.1497002,VALID,958.0
9XX BRITTANY DR DENTON TX ,33.2265079,-97.0948052,VALID,959.0
6XX WOLFTRAP DR DENTON TX ,33.2460767,-97.1237708,VALID,960.0
4XX S ELM ST DENTON TX ,33.2101561,-97.1337726,VALID,961.0
18XX MISTYWOOD LN DENTON TX ,33.2371598,-97.1060725,VALID,962.0
10XX W CONGRESS ST DENTON TX ,33.219372,-97.1407651,VALID,963.0
15XX BERNARD ST DENTON TX ,33.2010666,-97.1416274,VALID,964.0
33XX UNICORN LAKE BLVD DENTON TX ,33.1716801,-97.0957739,VALID,965.0
S ELM ST DENTON TX ,33.2101561,-97.1337726,VALID,966.0
N RUDDELL ST DENTON TX ,33.222033,-97.1178217,VALID,967.0
38XX ARROYO TRL DENTON TX ,33.1727335,-97.0724026,VALID,968.0
1XX S LOOP 288 DENTON TX ,33.1970392,-97.0919826,VALID,969.0
45XX SHY CREEK LN DENTON TX ,33.262117,-97.1261137,VALID,970.0
15XX ANNA ST DENTON TX ,33.2257569,-97.1361846,VALID,971.0
55XX SONGBIRD TRL DENTON TX ,33.2673445,-97.1233487,VALID,972.0
22XX REDWOOD PL DENTON TX ,33.2324808,-97.1118331,VALID,973.0
85XX W UNIVERSITY DR DENTON TX ,33.2303119,-97.1816464,VALID,974.0
29XX SADDLE DR DENTON TX ,33.1482677,-97.1033731,VALID,975.0
10XX MACK PL DENTON TX ,33.2228729,-97.1077003,VALID,976.0
5XX RUTH ST DENTON TX ,33.2053807,-97.1274001,VALID,977.0
34XX SUNDOWN BLVD DENTON TX ,33.172871,-97.1111172,VALID,978.0
20XX METRO ST DENTON TX ,33.195254,-97.1704273,VALID,979.0
8XX CRESCENT ST DENTON TX ,33.2257629,-97.1497812,VALID,980.0
46XX MERLOT DR DENTON TX ,33.1724097,-97.1685727,VALID,981.0
7XX CORDELL ST DENTON TX ,33.2266141,-97.1471889,VALID,982.0
AVE A DENTON TX ,33.2083388,-97.1462368,VALID,983.0
8XX N LOCUST ST DENTON TX ,33.256469,-97.1316417,VALID,984.0
11XX WILSON ST DENTON TX ,33.2081469,-97.1208293,VALID,985.0
21XX W HICKORY ST DENTON TX ,33.2146565,-97.1475676,VALID,986.0
18XX MERCEDES RD DENTON TX ,33.1932688,-97.1449557,VALID,987.0
25XX FALL LEAF CT DENTON TX ,33.2211846,-97.1032524,VALID,988.0
22XX SPENCER RD DENTON TX ,33.1959056,-97.0987982,VALID,989.0
S AVE G DENTON TX ,33.2122342,-97.1579955,VALID,990.0
N AUSTIN ST DENTON TX ,33.2208521,-97.1311235,VALID,991.0
14XX UNDERWOOD ST DENTON TX ,33.203434,-97.1490791,VALID,992.0
18XX N ELM ST DENTON TX ,33.2483035,-97.1480169,VALID,993.0
7XX S CARROLL BLVD DENTON TX ,33.2093664,-97.137149,VALID,994.0
24XX S I 35 E HWY DENTON TX ,33.1814754,-97.102065,VALID,995.0
75XX STALLION ST DENTON TX ,33.219249,-97.0533518,VALID,996.0
21XX DOUBLEOAK ST DENTON TX ,33.2191597,-97.1048666,VALID,997.0
36XX DORIS DR DENTON TX ,33.252039,-97.1363638,VALID,998.0
95XX LINDENWOOD TRL DENTON TX ,33.1354916,-97.2314722,VALID,999.0
50XX E UNIVERSITY DR DENTON TX ,33.2345383,-97.0783176,VALID,1000.0
24XX LOUISE ST DENTON TX ,33.211833,-97.1598019,VALID,1001.0
24XX I 35 W HWY DENTON TX ,33.1648139,-97.1855749,VALID,1002.0
EMERSON LN DENTON TX ,33.2418,-97.1048034,VALID,1003.0
7XX PAISLEY ST DENTON TX ,33.2207581,-97.1094508,VALID,1004.0
19XX LARIAT RD DENTON TX ,33.2357069,-97.1906173,VALID,1005.0
3XX AMARILLO ST DENTON TX ,33.2192471,-97.1422904,VALID,1006.0
36XX BARRYDALE DR DENTON TX ,33.1776823,-97.0564486,VALID,1007.0
16XX SCRIPTURE ST DENTON TX ,33.2188813,-97.1575335,VALID,1008.0
12XX N AUSTIN ST DENTON TX ,33.2208521,-97.1311235,VALID,1009.0
37XX LAKE COUNTRY DR DENTON TX ,33.1689679,-97.1102257,VALID,1010.0
32XX MASTHEAD DR DENTON TX ,33.1694087,-97.1169779,VALID,1011.0
39XX WATERFORD WAY DENTON TX ,33.1654878,-97.0883441,VALID,1012.0
1XX N ELM ST DENTON TX ,33.2483035,-97.1480169,VALID,1013.0
36XX MARIANNE CIR DENTON TX ,33.2490445,-97.1060811,VALID,1014.0
N WELCH ST DENTON TX ,33.2151704,-97.1442418,VALID,1015.0
33XX HIGHPOINT DR DENTON TX ,33.1498874,-97.0989752,VALID,1016.0
11XX DAVIS ST DENTON TX ,33.2179748,-97.1185504,VALID,1017.0
10XX W HICKORY ST DENTON TX ,33.2146565,-97.1475676,VALID,1018.0
27XX EMERSON LN DENTON TX ,33.2418,-97.1048034,VALID,1019.0
10XX CLEVELAND ST DENTON TX ,33.2041349,-97.1379203,VALID,1020.0
12XX TULANE DR DENTON TX ,33.2333818,-97.1481085,VALID,1021.0
2XX W WINDSOR DR DENTON TX ,33.2402202,-97.1526306,VALID,1022.0
37XX SPRINGFIELD ST DENTON TX ,33.2253979,-97.0863357,VALID,1023.0
11XX BERNARD ST DENTON TX ,33.2010666,-97.1416274,VALID,1024.0
12XX GREENBRIAR ST DENTON TX ,33.2342213,-97.1463673,VALID,1025.0
21XX CAMELLIA ST DENTON TX ,33.1923099,-97.1580815,VALID,1026.0
12XX FORT WORTH DR DENTON TX ,33.1675471,-97.1532309,VALID,1027.0
6XX N BELL AVE DENTON TX ,33.2310843,-97.1272288,VALID,1028.0
37XX I 35 DENTON TX ,33.2802739,-97.177933,VALID,1029.0
34XX E UNIVERSITY DR DENTON TX ,33.2345383,-97.0783176,VALID,1030.0
S I 35 E HWY DENTON TX ,33.1814754,-97.102065,VALID,1031.0
37XX S I 35 E DENTON TX ,33.1814754,-97.102065,VALID,1032.0
24XX KAYEWOOD DR DENTON TX ,33.2343372,-97.118504,VALID,1033.0
38XX S I 35 E HWY DENTON TX ,33.1814754,-97.102065,VALID,1034.0
60XX ENGLISH SADDLE LN DENTON TX ,33.1524257,-97.1027552,VALID,1035.0
16XX MARBLE COVE LN DENTON TX ,33.1463444,-97.1163882,VALID,1036.0
69XX HAYLING WAY DENTON TX ,33.1487251,-97.096574,VALID,1037.0
31XX SPENROCK CT DENTON TX ,33.1707191,-97.1435172,VALID,1038.0
32XX N ELM ST DENTON TX ,33.2483035,-97.1480169,VALID,1039.0
35XX HUDSONWOOD DR DENTON TX ,33.1846608,-97.0928243,VALID,1040.0
10XX BULL RUN ST DENTON TX ,33.2220249,-97.1066981,VALID,1041.0
34XX NOTTINGHAM DR DENTON TX ,33.2389117,-97.1066916,VALID,1042.0
LYNHURST LN DENTON TX ,33.1807543,-97.1172597,VALID,1043.0
24XX OAKRIDGE DR DENTON TX ,33.2381399,-97.119943,VALID,1044.0
14XX N ELM ST DENTON TX ,33.2483035,-97.1480169,VALID,1045.0
23XX PARVIN ST DENTON TX ,33.1910354,-97.1518136,VALID,1046.0
25XX MESQUITE ST DENTON TX ,33.2393246,-97.1407334,VALID,1047.0
55XX THISTLE HL DENTON TX ,33.1566129,-97.1299278,VALID,1048.0
1XX N WOODROW LN DENTON TX ,33.2151027,-97.1119418,VALID,1049.0
10XX MULKEY LN DENTON TX ,33.2215732,-97.1112194,VALID,1050.0
74XX CHAUCER DR DENTON TX ,33.1487281,-97.1127558,VALID,1051.0
12XX BAYFIELD ST DENTON TX ,33.2300635,-97.0940433,VALID,1052.0
13XX MANTEN BLVD DENTON TX ,33.2518017,-97.110333,VALID,1053.0
4XX S LOCUST ST DENTON TX ,33.2025721,-97.1335834,VALID,1054.0
65XX CEDARHURST CT DENTON TX ,33.1331973,-97.201078,VALID,1055.0
41XX SPUR TRAIL DR DENTON TX ,33.2526471,-97.1038952,VALID,1056.0
I 35 W HWY DENTON TX ,33.1648139,-97.1855749,VALID,1057.0
53XX PAULIE DR DENTON TX ,33.2048454,-97.0756327,VALID,1058.0
6XX FALLMEADOW CT DENTON TX ,33.2455333,-97.1411685,VALID,1059.0
5XX MILL ST DENTON TX ,33.2064589,-97.1280704,VALID,1060.0
25XX LA PALOMA DR DENTON TX ,33.2468353,-97.0974716,VALID,1061.0
10XX LARCH LN DENTON TX ,33.2229996,-97.1159019,VALID,1062.0
13XX ECTOR ST DENTON TX ,33.2242992,-97.1550157,VALID,1063.0
30XX ARMSTRONG ST DENTON TX ,33.2428183,-97.0954774,VALID,1064.0
11XX FORT WORTH DR DENTON TX ,33.1675471,-97.1532309,VALID,1065.0
12XX W MULBERRY ST DENTON TX ,33.2135492,-97.1427608,VALID,1066.0
11XX CRUISE ST DENTON TX ,33.2586071,-97.1189391,VALID,1067.0
9XX COLE AVE DENTON TX ,33.2034291,-97.0766302,VALID,1068.0
I 35 HWY DENTON TX ,33.2680024,-97.1780427,VALID,1069.0
4XX BRADLEY ST DENTON TX ,33.217931,-97.1539703,VALID,1070.0
1XX N CARROLL BLVD DENTON TX ,33.2279879,-97.1368644,VALID,1071.0
34XX MUSTANG DR DENTON TX ,33.1720802,-97.1081212,VALID,1072.0
23XX RANCH HOUSE DR DENTON TX ,33.1727717,-97.1070261,VALID,1073.0
35XX SUNDOWN BLVD DENTON TX ,33.172871,-97.1111172,VALID,1074.0
38XX LAKE COUNTRY DR DENTON TX ,33.1689679,-97.1102257,VALID,1075.0
55XX THISTLE WAY DENTON TX ,33.1555335,-97.1289963,VALID,1076.0
5XX BOARDWALK LN DENTON TX ,33.2038741,-97.12626,VALID,1077.0
CARMEL HILLS DR DENTON TX ,33.1744264,-97.0708023,VALID,1078.0
8XX CROSS TIMBER ST DENTON TX ,33.20644,-97.1274399,VALID,1079.0
18XX EMERY ST DENTON TX ,33.2283873,-97.1497,VALID,1080.0
24XX W HICKORY ST DENTON TX ,33.2146565,-97.1475676,VALID,1081.0
14XX CONSTANTINA DR DENTON TX ,33.2493122,-97.1433156,VALID,1082.0
36XX HARBOUR MIST TRL DENTON TX ,33.1732271,-97.0733725,VALID,1083.0
1XX BENTWOOD CT DENTON TX ,33.1673413,-97.1337632,VALID,1084.0
N BONNIE BRAE ST DENTON TX ,33.2460697,-97.1605525,VALID,1085.0
3XX CAMPBELL LN DENTON TX ,33.2181214,-97.1125522,VALID,1086.0
32XX SHADOW TRL DENTON TX ,33.2512409,-97.1277031,VALID,1087.0
24XX OLD NORTH RD DENTON TX ,33.2389126,-97.0987633,VALID,1088.0
19XX W UNIVERSITY DR DENTON TX ,33.2303119,-97.1816464,VALID,1089.0
13XX W HICKORY ST DENTON TX ,33.2146565,-97.1475676,VALID,1090.0
26XX BRINKER RD DENTON TX ,33.1883701,-97.095871,VALID,1091.0
N MAYHILL RD DENTON TX ,33.2218988,-97.0831971,VALID,1092.0
1XX FERGUSON ST DENTON TX ,33.2220055,-97.1329522,VALID,1093.0
8XX DENTON ST DENTON TX ,33.2197983,-97.1390881,VALID,1094.0
10XX SANTA FE ST DENTON TX ,33.1984931,-97.1185853,VALID,1095.0
18XX S BONNIE BRAE ST DENTON TX ,33.1837027,-97.1641773,VALID,1096.0
54XX WHARFSIDE PL DENTON TX ,33.1768781,-97.0729452,VALID,1097.0
13XX PHOENIX CT DENTON TX ,33.1981963,-97.1188445,VALID,1098.0
5XX N CRAWFORD ST DENTON TX ,33.2179936,-97.120214,VALID,1099.0
21XX MALONE ST DENTON TX ,33.2281522,-97.1497076,VALID,1100.0
3XX PEACH ST DENTON TX ,33.2362182,-97.1298371,VALID,1101.0
13XX LAREDO CT DENTON TX ,33.1982736,-97.1169615,VALID,1102.0
33XX LANCE LN DENTON TX ,33.2249826,-97.0961798,VALID,1103.0
8XX W MULBERRY ST DENTON TX ,33.2135492,-97.1427608,VALID,1104.0
8XX WESTWAY ST DENTON TX ,33.2286784,-97.139311,VALID,1105.0
37XX KIRBY DR DENTON TX ,33.165128,-97.1019493,VALID,1106.0
9XX N BELL AVE DENTON TX ,33.2310843,-97.1272288,VALID,1107.0
53XX TARTAN CIR DENTON TX ,33.2062669,-97.0755431,VALID,1108.0
33XX S I 35 E HWY DENTON TX ,33.1814754,-97.102065,VALID,1109.0
19XX WESTMINSTER CT DENTON TX ,33.19092,-97.1217059,VALID,1110.0
26XX PANHANDLE ST DENTON TX ,33.2216193,-97.1526645,VALID,1111.0
21XX SAVANNAH TRL DENTON TX ,33.1843908,-97.1225926,VALID,1112.0
13XX BRIDGES ST DENTON TX ,33.198112,-97.0864966,VALID,1113.0
7XX MIMOSA DR DENTON TX ,33.2392851,-97.139075,VALID,1114.0
62XX N LOOP 288 DENTON TX ,33.2584052,-97.1428634,VALID,1115.0
38XX I 35 HWY DENTON TX ,33.2680024,-97.1780427,VALID,1116.0
29XX LOVERS LN DENTON TX ,33.2497754,-97.200104,VALID,1117.0
9XX BAYFIELD DR DENTON TX ,33.2282981,-97.0939494,VALID,1118.0
32XX ANYSA LN DENTON TX ,33.2264223,-97.0971391,VALID,1119.0
7XX HEBRON LEWISVILLE TX ,33.0101482,-96.9584227,VALID,1120.0
34XX SANTA MONICA DR DENTON TX ,33.171516,-97.1279161,VALID,1121.0
16XX KINGS ROW DENTON TX ,33.2490386,-97.1062357,VALID,1122.0
23XX BIRCHBROOK CT DENTON TX ,33.1906417,-97.1150027,VALID,1123.0
6XX N I 35 E HWY DENTON TX ,33.2036084,-97.1504619,VALID,1124.0
33XX TEASBEND CT DENTON TX ,33.1705178,-97.1484474,VALID,1125.0
2XX HANN ST DENTON TX ,33.221583,-97.1311174,VALID,1126.0
N I 35 E HWY DENTON TX ,33.2036084,-97.1504619,VALID,1127.0
3XX SMITH ST DENTON TX ,33.2021306,-97.1270243,VALID,1128.0
3XX S CARROLL BLVD DENTON TX ,33.2093664,-97.137149,VALID,1129.0
13XX BERNARD ST DENTON TX ,33.2010666,-97.1416274,VALID,1130.0
11XX E MULBERRY ST DENTON TX ,33.2134607,-97.1282628,VALID,1131.0
45XX BLACK WALNUT ST DENTON TX ,33.1691528,-97.0676056,VALID,1132.0
24XX ROBINWOOD LN DENTON TX ,33.2376615,-97.1177146,VALID,1133.0
28XX W SHADY SHORES RD DENTON TX ,33.1640049,-97.0722153,VALID,1134.0
3XX THOMAS ST DENTON TX ,33.2220385,-97.1586753,VALID,1135.0
50XX BEAVER CREEK AVE DENTON TX ,33.263345,-97.1253722,VALID,1136.0
9XX SUMMER STREAM RD DENTON TX ,33.2619708,-97.1250901,VALID,1137.0
31XX OLD NORTH RD DENTON TX ,33.2389126,-97.0987633,VALID,1138.0
41XX I 35 DENTON TX ,33.2802739,-97.177933,VALID,1139.0
25XX CHEBI LN DENTON TX ,33.2381202,-97.1002328,VALID,1140.0
23XX CANONGATE DR DENTON TX ,33.2497387,-97.155547,VALID,1141.0
78XX CASTLE PINES LN DENTON TX ,33.1724739,-97.0598358,VALID,1142.0
25XX FREEDOM LN DENTON TX ,33.2383167,-97.095969,VALID,1143.0
26XX CHEBI LN DENTON TX ,33.2381202,-97.1002328,VALID,1144.0
1XX E MCKINNEY ST DENTON TX ,33.2115705,-97.0875966,VALID,1145.0
73XX CHAUCER DR DENTON TX ,33.1487281,-97.1127558,VALID,1146.0
67XX ALDERBROOK DR DENTON TX ,33.148481,-97.0955017,VALID,1147.0
4XX BENJIMAN ST DENTON TX ,33.2452631,-97.1374781,VALID,1148.0
1XX S MAYHILL RD DENTON TX ,33.1922091,-97.0856294,VALID,1149.0
7XX HILLCREST ST DENTON TX ,33.2233187,-97.1569315,VALID,1150.0
57XX MILLS RD DENTON TX ,33.2152229,-97.0713378,VALID,1151.0
20XX WESTWOOD DR DENTON TX ,33.1941786,-97.1458733,VALID,1152.0
9XX S CARROLL BLVD DENTON TX ,33.2093664,-97.137149,VALID,1153.0
20XX WINTHROP HILL RD DENTON TX ,33.1585859,-97.1554732,VALID,1154.0
9XX BEATTY ST DENTON TX ,33.2059439,-97.1431844,VALID,1155.0
10XX EDINBURG LN DENTON TX ,33.2448557,-97.1169526,VALID,1156.0
28XX I 35 HWY DENTON TX ,37.9418219,-96.7515814,VALID,1157.0
14XX W OAK ST DENTON TX ,33.2157359,-97.1545246,VALID,1158.0
33XX FORT WORTH DR DENTON TX ,33.1675471,-97.1532309,VALID,1159.0
22XX BOLIVAR ST DENTON TX ,33.2283073,-97.1348068,VALID,1160.0
6XX W HICKORY ST DENTON TX ,33.2146565,-97.1475676,VALID,1161.0
14XX OAKLAND ST DENTON TX ,33.2209425,-97.1299558,VALID,1162.0
STOCKBRIDGE RD DENTON TX ,33.1839991,-97.0916819,VALID,1163.0
56XX I 35 W HWY DENTON TX ,33.1648139,-97.1855749,VALID,1164.0
21XX LATTIMORE ST DENTON TX ,33.2253527,-97.110405,VALID,1165.0
24XX SHERATON RD DENTON TX ,33.2536129,-97.1198483,VALID,1166.0
6XX CARDINAL DR DENTON TX ,33.2188503,-97.09203,VALID,1167.0
25XX NOTTINGHAM DR DENTON TX ,33.2389117,-97.1066916,VALID,1168.0
75XX VALLEY STREAM RD DENTON TX ,33.1785937,-97.0571527,VALID,1169.0
52XX I 35 DENTON TX ,33.2802739,-97.177933,VALID,1170.0
19XX N CARROLL BLVD DENTON TX ,33.2279879,-97.1368644,VALID,1171.0
48XX I 35 HWY DENTON TX ,33.2680024,-97.1780427,VALID,1172.0
15XX EUFEMIA DR DENTON TX ,33.2508317,-97.1440301,VALID,1173.0
21XX BRINKER RD DENTON TX ,33.1883701,-97.095871,VALID,1174.0
33XX WAGON TRAIL DR DENTON TX ,33.2105967,-97.0983387,VALID,1175.0
47XX DOGWOOD DR DENTON TX ,33.1687518,-97.0723926,VALID,1176.0
LONGRIDGE DR DENTON TX ,33.1834329,-97.1210795,VALID,1177.0
9XX PROVIDENCE ST DENTON TX ,33.1774095,-97.1214207,VALID,1178.0
5XX MADDOX ST DENTON TX ,33.2090001,-97.1270685,VALID,1179.0
31XX STONECROP TRL DENTON TX ,33.171187,-97.1618373,VALID,1180.0
13XX DEER TRL DENTON TX ,33.1976558,-97.1144156,VALID,1181.0
22XX YORKSHIRE ST DENTON TX ,33.2512258,-97.1115566,VALID,1182.0
67XX HAYLING WAY DENTON TX ,33.1487251,-97.096574,VALID,1183.0
55XX PORTOLA LN DENTON TX ,33.1745435,-97.0720048,VALID,1184.0
50XX NAUTICAL LN DENTON TX ,33.1451025,-97.1010774,VALID,1185.0
12XX HILLCREST ST DENTON TX ,33.2233187,-97.1569315,VALID,1186.0
39XX CAMELOT ST DENTON TX ,33.2547572,-97.1235202,VALID,1187.0
9XX KILKENNY CT DENTON TX ,33.1754165,-97.1423768,VALID,1188.0
80XX OAK CREEK LN DENTON TX ,33.2150791,-97.0537624,VALID,1189.0
6XX W UNIVERSITY DR DENTON TX ,33.2303119,-97.1816464,VALID,1190.0
18XX BROADWAY ST DENTON TX ,33.222518,-97.1483385,VALID,1191.0
16XX WHITE OAK CT DENTON TX ,33.222753,-97.1119098,VALID,1192.0
8XX ALICE ST DENTON TX ,33.2254848,-97.1401655,VALID,1193.0
XX WELLINGTON OAKS CIR DENTON TX ,33.1653124,-97.1311594,VALID,1194.0
10XX WILLOWWOOD ST DENTON TX ,33.1963499,-97.15154,VALID,1195.0
27XX GREGG DR EDINBURG TX ,26.2748033,-98.1445253,VALID,1196.0
1XX MAPLE ST DENTON TX ,33.2082019,-97.1428479,VALID,1197.0
9XX ALICE ST DENTON TX ,33.2254848,-97.1401655,VALID,1198.0
27XX N LOCUST ST DENTON TX ,33.256469,-97.1316417,VALID,1199.0
E EAGLE DR DENTON TX ,33.206632,-97.14474,VALID,1200.0
ALEGRE VISTA DR DENTON TX ,33.2000181,-97.1266125,VALID,1201.0
11XX W MULBERRY ST DENTON TX ,33.2135492,-97.1427608,VALID,1202.0
100XX I 35 HWY DENTON TX ,33.2680024,-97.1780427,VALID,1203.0
4XX WITHERS ST DENTON TX ,33.2211301,-97.1277038,VALID,1204.0
26XX MINGO RD DENTON TX ,33.2314612,-97.1056244,VALID,1205.0
43XX LITTLE BROOK RD DENTON TX ,33.2528349,-97.2026768,VALID,1206.0
9XX S I 35 E HWY DENTON TX ,33.1814754,-97.102065,VALID,1207.0
5XX JUPITER DR DENTON TX ,33.25877,-97.1249199,VALID,1208.0
8XX SIERRA DR DENTON TX ,33.2479414,-97.1193666,VALID,1209.0
SPENCER RD DENTON TX ,33.1959056,-97.0987982,VALID,1210.0
56XX E MCKINNEY ST DENTON TX ,33.2115705,-97.0875966,VALID,1211.0
23XX DOUBLEOAK CT DENTON TX ,33.2189865,-97.1033633,VALID,1212.0
32XX S I 35 E HWY DENTON TX ,33.1814754,-97.102065,VALID,1213.0
16XX EGAN ST DENTON TX ,33.2203978,-97.1422526,VALID,1214.0
47XX INDIAN PAINT WAY DENTON TX ,33.1687089,-97.0702742,VALID,1215.0
75XX BARRYMORE RD DENTON TX ,33.1764266,-97.0574732,VALID,1216.0
29XX I 35 DENTON TX ,33.2802739,-97.177933,VALID,1217.0
11XX E OAK ST DENTON TX ,33.2153379,-97.124989,VALID,1218.0
14XX STUART RD DENTON TX ,33.253604,-97.1221225,VALID,1219.0
42XX SONOMA DR DENTON TX ,33.1707058,-97.173622,VALID,1220.0
25XX CLUB HOUSE DR DENTON TX ,33.2243409,-97.1229744,VALID,1221.0
8XX BERNARD ST DENTON TX ,33.2010666,-97.1416274,VALID,1222.0
31XX W UNIVERSITY DR DENTON TX ,33.2303119,-97.1816464,VALID,1223.0
27XX ROSELAWN DR DENTON TX ,33.1846168,-97.1479993,VALID,1224.0
63XX THOROUGHBRED TRL DENTON TX ,33.1538329,-97.096408,VALID,1225.0
46XX WARSCHUN RD DENTON TX ,33.2951832,-97.0788656,VALID,1226.0
5XX ACME ST DENTON TX ,33.1947949,-97.1395737,VALID,1227.0
6XX AUDRA LN DENTON TX ,33.2246081,-97.1068564,VALID,1228.0
5XX W EAGLE DR DENTON TX ,33.206632,-97.14474,VALID,1229.0
3XX TRIPP TRL DENTON TX ,33.2500682,-97.1341452,VALID,1230.0
23XX S I 35 E DENTON TX ,33.1814754,-97.102065,VALID,1231.0
2XX S AVE G DENTON TX ,33.2122342,-97.1579955,VALID,1232.0
2XX BRYAN ST DENTON TX ,33.2207835,-97.1475497,VALID,1233.0
27XX ROBINWOOD LN DENTON TX ,33.2376615,-97.1177146,VALID,1234.0
22XX LATTIMORE ST DENTON TX ,33.2253527,-97.110405,VALID,1235.0
9XX S AVE C DENTON TX ,33.207115,-97.1508123,VALID,1236.0
58XX MILAM RDG DENTON TX ,33.2934421,-97.1682086,VALID,1237.0
1XX PENNSYLVANIA DR DENTON TX ,33.1826901,-97.1178826,VALID,1238.0
26XX FONDREN RD DENTON TX ,33.1639388,-97.1062976,VALID,1239.0
48XX S I 35 E CORINTH TX ,33.148343,-97.0569755,VALID,1240.0
30XX AUGUSTA DR DENTON TX ,33.2345619,-97.1702817,VALID,1241.0
9XX BERNARD ST DENTON TX ,33.2010666,-97.1416274,VALID,1242.0
32XX N BELL AVE DENTON TX ,33.2310843,-97.1272288,VALID,1243.0
21XX LESLIE ST DENTON TX ,33.1934496,-97.1429921,VALID,1244.0
3XX W HOBSON LN DENTON TX ,33.1760298,-97.1317986,VALID,1245.0
3XX TEXAS ST DENTON TX ,33.2222473,-97.123652,VALID,1246.0
3XX W SYCAMORE ST DENTON TX ,33.2126151,-97.1438642,VALID,1247.0
29XX OSAGE LN DENTON TX ,33.1771724,-97.1110714,VALID,1248.0
8XX LYNHURST LN DENTON TX ,33.1807543,-97.1172597,VALID,1249.0
NOTTINGHAM DR DENTON TX ,33.2389117,-97.1066916,VALID,1250.0
20XX W OAK ST DENTON TX ,33.2157359,-97.1545246,VALID,1251.0
24XX LILLIAN B MILLER PKWY DENTON TX ,33.1824753,-97.1094951,VALID,1252.0
27XX JAMES ST DENTON TX ,33.1820245,-97.141914,VALID,1253.0
11XX CRESCENT ST DENTON TX ,33.2257629,-97.1497812,VALID,1254.0
5XX N LOCUST ST DENTON TX ,33.256469,-97.1316417,VALID,1255.0
4XX HOLLYHILL LN DENTON TX ,33.1882245,-97.1148274,VALID,1256.0
4XX AUDRA LN DENTON TX ,33.2246081,-97.1068564,VALID,1257.0
4XX N CRAWFORD ST DENTON TX ,33.2179936,-97.120214,VALID,1258.0
OAKLAWN AVE DENTON TX ,33.2346207,-97.1279994,VALID,1259.0
ROYAL OAKS CIR DENTON TX ,33.1632277,-97.1313507,VALID,1260.0
104XX CASCADE DR DENTON TX ,33.1437159,-97.236256,VALID,1261.0
19XX CAMDEN CT DENTON TX ,33.189929,-97.12284,VALID,1262.0
6XX PEARL ST DENTON TX ,33.2171867,-97.1379844,VALID,1263.0
12XX SPRINGCREEK DR DENTON TX ,33.1672742,-97.1449504,VALID,1264.0
10XX W COLLINS ST DENTON TX ,33.2041237,-97.1393456,VALID,1265.0
14XX FORT WORTH DR DENTON TX ,33.1675471,-97.1532309,VALID,1266.0
14XX MYRTLE ST DENTON TX ,33.2050727,-97.1350973,VALID,1267.0
8XX OAK VLY DENTON TX ,33.2234143,-97.1015613,VALID,1268.0
ROBBIE-O ST DENTON TX ,33.2488186,-97.136298,VALID,1269.0
87XX SERENITY WAY DENTON TX ,33.1433045,-97.1148147,VALID,1270.0
15XX N LOCUST ST DENTON TX ,33.256469,-97.1316417,VALID,1271.0
98XX STONEWOOD DR DENTON TX ,33.1347178,-97.233177,VALID,1272.0
9XX SUNSET ST DENTON TX ,33.2296642,-97.1383821,VALID,1273.0
6XX MAGNOLIA ST DENTON TX ,33.2401965,-97.1397131,VALID,1274.0
7XX S I 35 E HWY DENTON TX ,33.1814754,-97.102065,VALID,1275.0
10XX W OAK ST DENTON TX ,33.2157359,-97.1545246,VALID,1276.0
24XX STELLA ST DENTON TX ,33.2137895,-97.1586493,VALID,1277.0
29XX OAKSHIRE ST DENTON TX ,33.2298302,-97.0988404,VALID,1278.0
3XX JOSHUA ST DENTON TX ,33.2175454,-97.0997246,VALID,1279.0
11XX S WOODROW LN DENTON TX ,33.2072363,-97.1120564,VALID,1280.0
17XX E RYAN RD DENTON TX ,33.161471,-97.1246831,VALID,1281.0
4XX NORTH TEXAS BLVD DENTON TX ,33.2064112,-97.1534274,VALID,1282.0
29XX N ELM ST DENTON TX ,33.2483035,-97.1480169,VALID,1283.0
9XX WILLOWWOOD ST DENTON TX ,33.1963499,-97.15154,VALID,1284.0
9XX S ELM ST DENTON TX ,33.2101561,-97.1337726,VALID,1285.0
22XX JEFFERSON TRL DENTON TX ,33.1818089,-97.1227325,VALID,1286.0
42XX BOXWOOD DR DENTON TX ,33.1723704,-97.0643787,VALID,1287.0
28XX SPENCER RD DENTON TX ,33.1959056,-97.0987982,VALID,1288.0
15XX E SHERMAN DR DENTON TX ,33.276093,-97.0962546,VALID,1289.0
7XX BUSHEY ST DENTON TX ,33.2071514,-97.1208431,VALID,1290.0
35XX KINGFISHER LN DENTON TX ,33.2196687,-97.0929843,VALID,1291.0
113XX W UNIVERSITY DR DENTON TX ,33.2303119,-97.1816464,VALID,1292.0
53XX WHITING WAY DENTON TX ,33.205552,-97.0755877,VALID,1293.0
32XX LIPIZZAN DR DENTON TX ,33.1516303,-97.1017658,VALID,1294.0
34XX ANDALUSIAN DR DENTON TX ,33.1560233,-97.0976197,VALID,1295.0
6XX W SYCAMORE ST DENTON TX ,33.2126151,-97.1438642,VALID,1296.0
9XX N MASCH BRANCH RD DENTON TX ,33.2304372,-97.1972384,VALID,1297.0
34XX PAISLEY ST DENTON TX ,33.2207581,-97.1094508,VALID,1298.0
30XX TERRY CT DENTON TX ,33.2276305,-97.0980911,VALID,1299.0
12XX TEASLEY LN DENTON TX ,33.1678163,-97.1103429,VALID,1300.0
14XX GATEWOOD DR DENTON TX ,33.1795937,-97.1148734,VALID,1301.0
13XX UNDERWOOD ST DENTON TX ,33.203434,-97.1490791,VALID,1302.0
23XX SHENANDOAH TRL DENTON TX ,33.1796577,-97.1082128,VALID,1303.0
2XX TRIPP TRL DENTON TX ,33.2500682,-97.1341452,VALID,1304.0
11XX N MAYHILL RD DENTON TX ,33.2218988,-97.0831971,VALID,1305.0
7XX E HICKORY ST DENTON TX ,33.2144196,-97.1253362,VALID,1306.0
22XX E MCKINNEY ST DENTON TX ,33.2115705,-97.0875966,VALID,1307.0
MANHATTAN DR DENTON TX ,33.2471244,-97.1195215,VALID,1308.0
18XX SENA ST DENTON TX ,33.2200484,-97.1531323,VALID,1309.0
52XX TARTAN CIR DENTON TX ,33.2062669,-97.0755431,VALID,1310.0
79XX HUDSON BAY LN DENTON TX ,33.1825588,-97.0566498,VALID,1311.0
34XX EVENING WIND RD DENTON TX ,33.179686,-97.0617983,VALID,1312.0
82XX MONTECITO DR DENTON TX ,33.1606932,-97.1198416,VALID,1313.0
79XX WINDING STREAM DR DENTON TX ,33.143518,-97.121976,VALID,1314.0
11XX DALLAS DR DENTON TX ,33.1993677,-97.1242105,VALID,1315.0
FRAME ST DENTON TX ,33.2236635,-97.1247226,VALID,1316.0
9XX AVE A DENTON TX ,33.2083388,-97.1462368,VALID,1317.0
22XX WESTVIEW TRL DENTON TX ,33.2375852,-97.1689603,VALID,1318.0
7XX FRAME ST DENTON TX ,33.2236635,-97.1247226,VALID,1319.0
7XX ECTOR ST DENTON TX ,33.2242992,-97.1550157,VALID,1320.0
47XX I 35 DENTON TX ,33.2802739,-97.177933,VALID,1321.0
23XX OVERLOOK LN DENTON TX ,33.2384188,-97.1662471,VALID,1322.0
35XX HORNBEAM ST DENTON TX ,33.171953,-97.1637127,VALID,1323.0
16XX HANOVER DR DENTON TX ,33.2416405,-97.1123153,VALID,1324.0
19XX LAKEVIEW BLVD DENTON TX ,33.2257982,-97.0604461,VALID,1325.0
7XX ALEXANDER ST DENTON TX ,33.2081725,-97.1220635,VALID,1326.0
14XX OAKWOOD DR DENTON TX ,33.1975666,-97.1468746,VALID,1327.0
2XX HOLLYHILL LN DENTON TX ,33.1882245,-97.1148274,VALID,1328.0
47XX CONLEY LN DENTON TX ,33.2625095,-97.1223852,VALID,1329.0
31XX N BELL AVE DENTON TX ,33.2310843,-97.1272288,VALID,1330.0
2XX N CARROLL BLVD DENTON TX ,33.2279879,-97.1368644,VALID,1331.0
6XX S I 35 E DENTON TX ,33.1814754,-97.102065,VALID,1332.0
36XX ANDALUSIAN DR DENTON TX ,33.1560233,-97.0976197,VALID,1333.0
30XX N BELL AVE DENTON TX ,33.2310843,-97.1272288,VALID,1334.0
49XX BARTHOLD RD DENTON TX ,33.2770646,-97.1966211,VALID,1335.0
27XX MONCAYO DR DENTON TX ,33.2406274,-97.1256174,VALID,1336.0
14XX N AUSTIN ST DENTON TX ,33.2208521,-97.1311235,VALID,1337.0
41XX REINING RD DENTON TX ,33.2988637,-97.0689706,VALID,1338.0
14XX WILDERNESS ST DENTON TX ,33.1984432,-97.1141093,VALID,1339.0
16XX GREENWOOD DR DENTON TX ,33.2353581,-97.1173887,VALID,1340.0
3XX N BRADSHAW ST DENTON TX ,33.2174708,-97.1214186,VALID,1341.0
20XX LOON LAKE RD DENTON TX ,33.1745164,-97.1068236,VALID,1342.0
6XX N WOOD ST DENTON TX ,33.2179707,-97.1190058,VALID,1343.0
27XX FOXCROFT CIR DENTON TX ,33.2389959,-97.1021072,VALID,1344.0
26XX VIRGINIA CIR DENTON TX ,33.2332466,-97.0943827,VALID,1345.0
20XX SCRIPTURE ST DENTON TX ,33.2188813,-97.1575335,VALID,1346.0
E MISSION ST DENTON TX ,33.1809806,-97.1366777,VALID,1347.0
12XX ANNA ST DENTON TX ,33.2257569,-97.1361846,VALID,1348.0
31XX COLORADO BLVD DENTON TX ,33.1875187,-97.1026425,VALID,1349.0
27XX HOLLOW RIDGE DR DENTON TX ,33.1684747,-97.1045152,VALID,1350.0
7XX W HICKORY ST DENTON TX ,33.2146565,-97.1475676,VALID,1351.0
9XX SCOTT DR DENTON TX ,33.2037829,-97.1174814,VALID,1352.0
COUNTRY CLUB RD DENTON TX ,33.1621985,-97.1419084,VALID,1353.0
36XX MARQUETTE DR DENTON TX ,33.1602708,-97.0913424,VALID,1354.0
78XX US 377 WATAUGA TX ,32.8756633,-97.2617581,VALID,1355.0
1XX AVE D DENTON TX ,33.2092069,-97.1529557,VALID,1356.0
19XX REDWOOD PL DENTON TX ,33.2324808,-97.1118331,VALID,1357.0
15XX W HICKORY ST DENTON TX ,33.2146565,-97.1475676,VALID,1358.0
6XX JACKSON ST DENTON TX ,33.2074411,-97.1257632,VALID,1359.0
55XX MARINA DR DENTON TX ,33.1762209,-97.0744372,VALID,1360.0
COLORADO BLVD DENTON TX ,33.1875187,-97.1026425,VALID,1361.0
11XX W COLLINS ST DENTON TX ,33.2041237,-97.1393456,VALID,1362.0
4XX ROBERTSON ST DENTON TX ,33.2081211,-97.1276932,VALID,1363.0
20XX EMERY ST DENTON TX ,33.2283873,-97.1497,VALID,1364.0
47XX PIEDMONTE CT DENTON TX ,33.1717666,-97.1750573,VALID,1365.0
2XX E SHERMAN DR DENTON TX ,33.276093,-97.0962546,VALID,1366.0
ECTOR ST DENTON TX ,33.2242992,-97.1550157,VALID,1367.0
33XX GARDENVIEW CIR DENTON TX ,33.2477881,-97.1414828,VALID,1368.0
40XX BARNHILL CT DENTON TX ,33.1808353,-97.0540713,VALID,1369.0
49XX S I 35 E DENTON TX ,33.1814754,-97.102065,VALID,1370.0
31XX HORNBEAM ST DENTON TX ,33.171953,-97.1637127,VALID,1371.0
10XX COIT ST DENTON TX ,33.2242203,-97.1379801,VALID,1372.0
94XX TRAILWOOD DR DENTON TX ,33.1371818,-97.2272682,VALID,1373.0
38XX MARKET ST DENTON TX ,33.2173299,-97.0884927,VALID,1374.0
24XX WESTWOOD DR DENTON TX ,33.1941786,-97.1458733,VALID,1375.0
56XX MARINA DR DENTON TX ,33.1762209,-97.0744372,VALID,1376.0
33XX VALLEY VIEW RD DENTON TX ,33.25182,-97.1237732,VALID,1377.0
27XX BEVERLY DR DENTON TX ,33.2269036,-97.0989449,VALID,1378.0
27XX CORDOVA CIR DENTON TX ,33.2406274,-97.1256174,VALID,1379.0
9XX CRUISE ST DENTON TX ,33.2586071,-97.1189391,VALID,1380.0
14XX HUNTERS RIDGE CIR DENTON TX ,33.1773577,-97.1133037,VALID,1381.0
22XX EMERY ST DENTON TX ,33.2283873,-97.1497,VALID,1382.0
2XX E WINDSOR DR DENTON TX ,33.2439517,-97.1120302,VALID,1383.0
10XX E OAK ST DENTON TX ,33.2153379,-97.124989,VALID,1384.0
21XX NORTH LAKE TRL DENTON TX ,33.23537,-97.1524327,VALID,1385.0
6XX NEWTON ST DENTON TX ,33.2075715,-97.1165881,VALID,1386.0
20XX HOLLYHILL LN DENTON TX ,33.1882245,-97.1148274,VALID,1387.0
22XX ACORN BND DENTON TX ,33.142626,-97.1087981,VALID,1388.0
22XX N MASCH BRANCH RD DENTON TX ,33.2304372,-97.1972384,VALID,1389.0
23XX PICADILLY LN DENTON TX ,33.2543598,-97.1145564,VALID,1390.0
14XX MONTEVIDEO CT DENTON TX ,33.1627873,-97.1155252,VALID,1391.0
64XX MEANDERING CREEK DR DENTON TX ,33.1339837,-97.1975771,VALID,1392.0
8XX OAKLAND ST DENTON TX ,33.2209425,-97.1299558,VALID,1393.0
1XX RED FOX LN DENTON TX ,33.1592888,-97.1354921,VALID,1394.0
58XX LONGMONT DR DENTON TX ,33.169796,-97.078399,VALID,1395.0
46XX TRUMPET VINE ST DENTON TX ,33.1693855,-97.0685319,VALID,1396.0
9XX PANHANDLE ST DENTON TX ,33.2216193,-97.1526645,VALID,1397.0
39XX ATLAS DR DENTON TX ,33.2550754,-97.1245216,VALID,1398.0
1XX DALLAS DR DENTON TX ,33.1993677,-97.1242105,VALID,1399.0
31XX PENINSULA TRL DENTON TX ,33.1771923,-97.0763209,VALID,1400.0
15XX BOLIVAR ST DENTON TX ,33.2283073,-97.1348068,VALID,1401.0
4XX MOCKINGBIRD LN DENTON TX ,33.2223676,-97.0976468,VALID,1402.0
21XX BERNARD ST DENTON TX ,33.2010666,-97.1416274,VALID,1403.0
10XX HOPKINS DR DENTON TX ,33.1971098,-97.1189362,VALID,1404.0
61XX GOLDENROD DR DENTON TX ,33.1681845,-97.0747561,VALID,1405.0
66XX SADDLEBACK DR DENTON TX ,33.1501466,-97.100455,VALID,1406.0
I 35 W HWY DENTON COUNTY TX ,33.1010526,-97.224088,VALID,1407.0
5XX CHATEAU CT DENTON TX ,33.2385653,-97.125085,VALID,1408.0
24XX BRINKER RD DENTON TX ,33.1883701,-97.095871,VALID,1409.0
36XX WESSEX CT DENTON TX ,33.1657925,-97.0902746,VALID,1410.0
53XX SEA COVE LN DENTON TX ,33.1776434,-97.073285,VALID,1411.0
8XX E SHERMAN DR DENTON TX ,33.276093,-97.0962546,VALID,1412.0
19XX LESLIE ST DENTON TX ,33.1934496,-97.1429921,VALID,1413.0
36XX DUNES ST DENTON TX ,33.2471049,-97.1039667,VALID,1414.0
36XX BIG HORN TRL DENTON TX ,33.1699907,-97.1060098,VALID,1415.0
GLEN FALLS LN DENTON TX ,33.1395542,-97.1150059,VALID,1416.0
59XX BROOKSIDE DR DENTON TX ,33.1355344,-97.1868545,VALID,1417.0
4XX WAINWRIGHT ST DENTON TX ,33.2098783,-97.131359,VALID,1418.0
5XX PANHANDLE ST DENTON TX ,33.2216193,-97.1526645,VALID,1419.0
24XX TOM COLE RD DENTON TX ,33.2070977,-97.2055129,VALID,1420.0
3XX WILLOW STONE ST DENTON TX ,33.2520491,-97.1296199,VALID,1421.0
33XX BENTGATE CT DENTON TX ,33.1698095,-97.1479184,VALID,1422.0
34XX BARCELONA ST DENTON TX ,33.2353204,-97.1779058,VALID,1423.0
55XX GALANTE LN DENTON TX ,33.1726954,-97.0759044,VALID,1424.0
23XX BERNARD ST DENTON TX ,33.2010666,-97.1416274,VALID,1425.0
31XX DARBY LN DENTON TX ,33.2477472,-97.1709504,VALID,1426.0
27XX ROBINSON RD DENTON TX ,33.1582681,-97.0989069,VALID,1427.0
3XX JAGOE ST DENTON TX ,33.2174969,-97.1505839,VALID,1428.0
N CRAWFORD ST DENTON TX ,33.2179936,-97.120214,VALID,1429.0
7XX SMOKERISE CIR DENTON TX ,33.1786694,-97.1161656,VALID,1430.0
20XX N ELM ST DENTON TX ,33.2483035,-97.1480169,VALID,1431.0
3XX N WOOD ST DENTON TX ,33.2179707,-97.1190058,VALID,1432.0
98XX IRONWOOD DR DENTON TX ,33.1329222,-97.2320192,VALID,1433.0
35XX ST JOHNS DR DENTON TX ,33.1586845,-97.089616,VALID,1434.0
4XX STROUD ST DENTON TX ,33.2115849,-97.1356449,VALID,1435.0
25XX ROBINSON RD DENTON TX ,33.1582681,-97.0989069,VALID,1436.0
30XX BRANDYWINE ST DENTON TX ,33.2311836,-97.0965691,VALID,1437.0
36XX BEATRIZ DR DENTON TX ,33.2524586,-97.1432385,VALID,1438.0
35XX SAN LUCAS LN DENTON TX ,33.1742931,-97.0759623,VALID,1439.0
26XX WESLAYAN DR DENTON TX ,33.1676977,-97.1038833,VALID,1440.0
22XX STELLA ST DENTON TX ,33.2137895,-97.1586493,VALID,1441.0
17XX WESTCHESTER DR DENTON TX ,33.2275761,-97.1514848,VALID,1442.0
27XX MILL POND RD DENTON TX ,33.2407783,-97.0976352,VALID,1443.0
11XX S AVE B DENTON TX ,33.2082576,-97.1485447,VALID,1444.0
9XX EMERY ST DENTON TX ,33.2283873,-97.1497,VALID,1445.0
50XX ATLANTIC DR DENTON TX ,33.1444928,-97.0983921,VALID,1446.0
5XX W PARKWAY ST DENTON TX ,33.2180686,-97.1358893,VALID,1447.0
2XX E OAK ST DENTON TX ,33.2153379,-97.124989,VALID,1448.0
38XX I 35 DENTON TX ,33.2802739,-97.177933,VALID,1449.0
11XX RALEIGH PATH DENTON TX ,33.2272323,-97.0853087,VALID,1450.0
4XX AMARILLO ST DENTON TX ,33.2192471,-97.1422904,VALID,1451.0
10XX LONGRIDGE DR DENTON TX ,33.1834329,-97.1210795,VALID,1452.0
21XX N I 35 E HWY DENTON TX ,33.2036084,-97.1504619,VALID,1453.0
2XX DALLAS DR DENTON TX ,33.1993677,-97.1242105,VALID,1454.0
4XX W WINDSOR DR DENTON TX ,33.2402202,-97.1526306,VALID,1455.0
11XX OAKWOOD DR DENTON TX ,33.1975666,-97.1468746,VALID,1456.0
23XX N ELM ST DENTON TX ,33.2483035,-97.1480169,VALID,1457.0
38XX HARBOUR MIST TRL DENTON TX ,33.1732271,-97.0733725,VALID,1458.0
49XX MILLS RD DENTON TX ,33.2152229,-97.0713378,VALID,1459.0
5XX S I 35 E HWY DENTON TX ,33.1814754,-97.102065,VALID,1460.0
13XX TULANE DR DENTON TX ,33.2333818,-97.1481085,VALID,1461.0
6XX GREENWOOD DR DENTON TX ,33.2353581,-97.1173887,VALID,1462.0
1XX CORONADO DR DENTON TX ,33.2394263,-97.1271636,VALID,1463.0
6XX RAILROAD AVE DENTON TX ,33.2160644,-97.1259537,VALID,1464.0
SPRING VALLEY DR DENTON TX ,33.2345757,-97.0873795,VALID,1465.0
17XX WAYNE ST DENTON TX ,33.2263648,-97.1126765,VALID,1466.0
6XX DALLAS DR DENTON TX ,33.1993677,-97.1242105,VALID,1467.0
PAISLEY ST DENTON TX ,33.2207581,-97.1094508,VALID,1468.0
67XX PURBECK TRL DENTON TX ,33.1499606,-97.0927666,VALID,1469.0
40XX HILLTOP LN DENTON TX ,33.1802553,-97.065524,VALID,1470.0
9XX E WINDSOR DR DENTON TX ,33.2439517,-97.1120302,VALID,1471.0
8XX N I 35 E DENTON TX ,33.2036084,-97.1504619,VALID,1472.0
15XX S AVE C DENTON TX ,33.207115,-97.1508123,VALID,1473.0
40XX MEADOW LN DENTON TX ,33.2535906,-97.1292952,VALID,1474.0
85XX I 35 W HWY DENTON TX ,33.1648139,-97.1855749,VALID,1475.0
50XX PARKPLACE DR DENTON TX ,33.1341609,-97.1880513,VALID,1476.0
3XX W CONGRESS ST DENTON TX ,33.219372,-97.1407651,VALID,1477.0
37XX HERMALINDA DR DENTON TX ,33.2530694,-97.1460882,VALID,1478.0
90XX FORT WORTH DR DENTON TX ,33.1675471,-97.1532309,VALID,1479.0
9XX W CHESTNUT ST DENTON TX ,33.2112623,-97.1429876,VALID,1480.0
24XX CHAMPLAIN LN DENTON TX ,33.1756087,-97.1069233,VALID,1481.0
24XX CREEKDALE DR DENTON TX ,33.1541853,-97.1237441,VALID,1482.0
32XX NOTTINGHAM DR DENTON TX ,33.2389117,-97.1066916,VALID,1483.0
3XX BERNARD ST DENTON TX ,33.2010666,-97.1416274,VALID,1484.0
12XX N I 35 E DENTON TX ,33.2036084,-97.1504619,VALID,1485.0
22XX NORTHWAY DENTON TX ,33.2381598,-97.1645905,VALID,1486.0
44XX LOST CREEK RD DENTON TX ,33.1585251,-97.134629,VALID,1487.0
13XX WHITE DOVE LN DENTON TX ,33.1455132,-97.11675,VALID,1488.0
30XX CAMINO REAL TRL DENTON TX ,33.1747817,-97.0767076,VALID,1489.0
42XX ROXBURY ST DENTON TX ,33.1587421,-97.111457,VALID,1490.0
27XX MISTYWOOD LN DENTON TX ,33.2371598,-97.1060725,VALID,1491.0
3XX W WINDSOR DR DENTON TX ,33.2402202,-97.1526306,VALID,1492.0
36XX TEASLEY LN DENTON TX ,33.1678163,-97.1103429,VALID,1493.0
36XX DUCHESS DR DENTON TX ,33.2096291,-97.0996858,VALID,1494.0
108XX BALENTINE ST DENTON TX ,33.1410838,-97.2416463,VALID,1495.0
11XX BROADWAY ST DENTON TX ,33.222518,-97.1483385,VALID,1496.0
23XX CADDO CIR DENTON TX ,33.1762203,-97.1080615,VALID,1497.0
17XX ANNA ST DENTON TX ,33.2257569,-97.1361846,VALID,1498.0
20XX PARKSIDE DR DENTON TX ,33.2363008,-97.1533791,VALID,1499.0
3XX ADMINISTRATION DR DENTON TX ,33.2273419,-97.1260169,VALID,1500.0
1XX BLUEBIRD CIR DENTON TX ,33.2149036,-97.0938238,VALID,1501.0
9XX INDUSTRIAL ST DENTON TX ,33.211199,-97.1301502,VALID,1502.0
10XX CRUISE ST DENTON TX ,33.2586071,-97.1189391,VALID,1503.0
85XX STALLION CT DENTON TX ,33.2133366,-97.0508042,VALID,1504.0
6XX CHATEAU CT DENTON TX ,33.2385653,-97.125085,VALID,1505.0
14XX VAL VERDE CT DENTON TX ,33.1495242,-97.1183195,VALID,1506.0
53XX PARK PLACE DR. ARGYLE TX TX ,33.1339237,-97.1856568,VALID,1507.0
81XX HOUSTON RD SANGER TX ,33.3167669,-97.2575408,VALID,1508.0
12XX E WINDSOR DR DENTON TX ,33.2439517,-97.1120302,VALID,1509.0
74XX N LOCUST ST DENTON TX ,33.256469,-97.1316417,VALID,1510.0
12XX FANNIN ST DENTON TX ,33.2053796,-97.1451123,VALID,1511.0
5XX W SYCAMORE ST DENTON TX ,33.2126151,-97.1438642,VALID,1512.0
2XX E SYCAMORE ST DENTON TX ,33.2124371,-97.125394,VALID,1513.0
32XX BELMONT ST DENTON TX ,33.1686065,-97.1354584,VALID,1514.0
15XX BOYD ST DENTON TX ,33.2296394,-97.1127991,VALID,1515.0
35XX W Airport Fwy IRVING TX ,32.8366602,-96.9877125,VALID,1516.0
83XX TEASLEY LN DENTON TX ,33.1678163,-97.1103429,VALID,1517.0
4XX GARDENVIEW ST DENTON TX ,33.2467182,-97.1380801,VALID,1518.0
27XX VALENCIA LN DENTON TX ,33.1777975,-97.1030939,VALID,1519.0
28XX SOUTHRIDGE DR DENTON TX ,33.1855332,-97.1141978,VALID,1520.0
4XX N LOOP 288 DENTON TX ,33.2584052,-97.1428634,VALID,1521.0
34XX MONTECITO RD DENTON TX ,33.1606932,-97.1198416,VALID,1522.0
20XX REDWOOD PL DENTON TX ,33.2324808,-97.1118331,VALID,1523.0
46XX PLANO PKWY CARROLLTON TX ,33.0498351,-96.8673672,VALID,1524.0
GROVELAND TER DENTON TX ,33.1472386,-97.1003503,VALID,1525.0
5XX MALONE ST DENTON TX ,33.2281522,-97.1497076,VALID,1526.0
19XX BOYD ST DENTON TX ,33.2296394,-97.1127991,VALID,1527.0
6XX WOODLAND ST DENTON TX ,33.2320287,-97.1263603,VALID,1528.0
25XX SPENCER RD DENTON TX ,33.1959056,-97.0987982,VALID,1529.0
2XX W SYCAMORE ST DENTON TX ,33.2126151,-97.1438642,VALID,1530.0
1XX CUNNINGHAM RD DENTON TX ,33.2189746,-97.0714257,VALID,1531.0
31XX BRIARY TRACE CT DENTON TX ,33.1707828,-97.1454794,VALID,1532.0
9XX JEFFREY DR DENTON TX ,33.2034834,-97.0748738,VALID,1533.0
11XX KEYSTONE CT DENTON TX ,33.2684187,-97.1230026,VALID,1534.0
3XX LEMON MINT LN DENTON TX ,33.1609021,-97.1378372,VALID,1535.0
28XX SHORELINE DR DENTON TX ,33.1734496,-97.0992169,VALID,1536.0
7XX DENTON ST DENTON TX ,33.2197983,-97.1390881,VALID,1537.0
23XX REDONDO RD DENTON TX ,33.1573612,-97.1081905,VALID,1538.0
35XX S I 35 E HWY DENTON TX ,33.1814754,-97.102065,VALID,1539.0
13XX N I 35 E HWY DENTON TX ,33.2036084,-97.1504619,VALID,1540.0
62XX MEANDERING CREEK DR DENTON TX ,33.1339837,-97.1975771,VALID,1541.0
46XX SHAGBARK DR DENTON TX ,33.1708229,-97.1663811,VALID,1542.0
36XX LIPIZZAN DR DENTON TX ,33.1516303,-97.1017658,VALID,1543.0
REDWOOD PL DENTON TX ,33.2324808,-97.1118331,VALID,1544.0
MOCKINGBIRD LN DENTON TX ,33.2223676,-97.0976468,VALID,1545.0
12XX N I 35 E HWY DENTON TX ,33.2036084,-97.1504619,VALID,1546.0
1XX N WOOD ST DENTON TX ,33.2179707,-97.1190058,VALID,1547.0
2XX SAWYER AVE DENTON TX ,33.2235419,-97.1311323,VALID,1548.0
2XX N CARPENTER RD DENTON TX ,33.2104011,-97.0786554,VALID,1549.0
24XX SPRING MEADOWS DR DENTON TX ,33.2219329,-97.1035957,VALID,1550.0
28XX ENGLEFIELD GRN DENTON TX ,33.2393002,-97.1725312,VALID,1551.0
16XX LAURELWOOD DR DENTON TX ,33.2361628,-97.1108191,VALID,1552.0
28XX N BONNIE BRAE ST DENTON TX ,33.2460697,-97.1605525,VALID,1553.0
26XX WELLINGTON DR DENTON TX ,33.2493375,-97.1133424,VALID,1554.0
6XX MEADOW VIEW CT DENTON TX ,33.2463745,-97.1408269,VALID,1555.0
4XX PACE DR DENTON TX ,33.2220745,-97.1008178,VALID,1556.0
19XX LATTIMORE ST DENTON TX ,33.2253527,-97.110405,VALID,1557.0
52XX ABBY WAY DENTON TX ,33.20407,-97.0756936,VALID,1558.0
15XX DALLAS DR DENTON TX ,33.1993677,-97.1242105,VALID,1559.0
109XX SOUTHERLAND DR DENTON TX ,33.1323248,-97.2465841,VALID,1560.0
11XX N LOOP 288 DENTON TX ,33.2584052,-97.1428634,VALID,1561.0
36XX COTTEN DR DENTON TX ,33.252978,-97.1409381,VALID,1562.0
62XX ENGLISH SADDLE LN DENTON TX ,33.1524257,-97.1027552,VALID,1563.0
37XX LOGAN DR DENTON TX ,33.2550013,-97.1469487,VALID,1564.0
65XX PINE HILLS LN DENTON TX ,33.1512005,-97.0948834,VALID,1565.0
15XX LATTIMORE ST DENTON TX ,33.2253527,-97.110405,VALID,1566.0
21XX E UNIVERSITY DR DENTON TX ,33.2345383,-97.0783176,VALID,1567.0
1XX SAMUEL ST DENTON TX ,33.2536506,-97.1343458,VALID,1568.0
12XX SAN GABRIEL DR DENTON TX ,33.1940517,-97.1150861,VALID,1569.0
10XX MINOR CIR DENTON TX ,33.2029022,-97.1172627,VALID,1570.0
22XX BOWLING GREEN ST DENTON TX ,33.2361786,-97.14937,VALID,1571.0
15XX MCCORMICK ST DENTON TX ,33.1967075,-97.1474472,VALID,1572.0
34XX HUMMINGBIRD LN DENTON TX ,33.2156946,-97.0935874,VALID,1573.0
8XX S WELCH ST DENTON TX ,33.2093173,-97.1443753,VALID,1574.0
2XX SAMUEL ST DENTON TX ,33.2536506,-97.1343458,VALID,1575.0
N BRADSHAW ST DENTON TX ,33.2174708,-97.1214186,VALID,1576.0
39XX REDSTONE RD DENTON TX ,33.25716,-97.12634,VALID,1577.0
6XX S BRADSHAW ST DENTON TX ,33.2100483,-97.1215277,VALID,1578.0
5XX WOODFORD LN DENTON TX ,33.2185225,-97.1137175,VALID,1579.0
10XX AVE A DENTON TX ,33.2083388,-97.1462368,VALID,1580.0
38XX TITAN TRL DENTON TX ,33.2555378,-97.1254731,VALID,1581.0
33XX BROOKE ST DENTON TX ,33.2470824,-97.1365697,VALID,1582.0
31XX SARANAC CIR DENTON TX ,33.1776307,-97.1062157,VALID,1583.0
96XX GREENSTONE WAY DENTON TX ,33.1395187,-97.2582856,VALID,1584.0
4XX INDUSTRIAL ST DENTON TX ,33.211199,-97.1301502,VALID,1585.0
20XX MERCEDES RD DENTON TX ,33.1932688,-97.1449557,VALID,1586.0
6XX E PRAIRIE ST DENTON TX ,33.2105793,-97.1259592,VALID,1587.0
38XX COUNTRY CLUB RD DENTON TX ,33.1621985,-97.1419084,VALID,1588.0
1XX WILSON WAY DENTON TX ,33.251638,-97.1344661,VALID,1589.0
2XX N AUSTIN ST DENTON TX ,33.2208521,-97.1311235,VALID,1590.0
9XX E MCKINNEY ST DENTON TX ,33.2115705,-97.0875966,VALID,1591.0
9XX DUNCAN ST DENTON TX ,33.20266,-97.12299,VALID,1592.0
22XX ARCHER TRL DENTON TX ,33.240091,-97.1062241,VALID,1593.0
39XX CROSSTREES DR DENTON TX ,33.163655,-97.1127421,VALID,1594.0
71XX LAS BRISAS CT DENTON TX ,33.1460061,-97.0962466,VALID,1595.0
11XX THOMAS ST DENTON TX ,33.2220385,-97.1586753,VALID,1596.0
10XX SCOTT DR DENTON TX ,33.2037829,-97.1174814,VALID,1597.0
14XX MOZINGO ST DENTON TX ,33.2271945,-97.1103733,VALID,1598.0
