original_index,address,latitude,longitude,status
0,91XX TEASLEY LN DENTON TX ,33.1678163,-97.1103429,VALID
1,32XX N LOCUST ST DENTON TX ,33.256469,-97.1316417,VALID
2,26XX W UNIVERSITY DR DENTON TX ,33.2303119,-97.1816464,VALID
3,7XX FORT WORTH DR DENTON TX ,33.1675471,-97.1532309,VALID
4,30XX HOWARD CT DENTON TX ,33.22551,-97.0989711,VALID
5,27XX W UNIVERSITY DR DENTON TX ,33.2303119,-97.1816464,VALID
6,5XX W UNIVERSITY DR DENTON TX ,33.2303119,-97.1816464,VALID
7,15XX MEADOW ST DENTON TX ,33.1986625,-97.134764,VALID
8,75XX TEASLEY LN DENTON TX ,33.1678163,-97.1103429,VALID
9,2XX INMAN ST DENTON TX ,33.1986254,-97.1321003,VALID
10,16XX TEASLEY LN DENTON TX ,33.1678163,-97.1103429,VALID
11,22XX S I 35 E DENTON TX ,33.1814754,-97.102065,VALID
12,20XX W UNIVERSITY DR DENTON TX ,33.2303119,-97.1816464,VALID
13,51XX E MCKINNEY ST DENTON TX ,33.2115705,-97.0875966,VALID
14,14XX MISTY HOLLOW ST DENTON TX ,33.2305226,-97.0957351,VALID
15,6XX E HICKORY ST DENTON TX ,33.2144196,-97.1253362,VALID
16,W UNIVERSITY DR DENTON TX ,33.2303119,-97.1816464,VALID
17,11XX EGAN ST DENTON TX ,33.2203978,-97.1422526,VALID
18,DATA SUPPRESSED,,,NOT_FOUND
19,I 35 W DENTON COUNTY TX ,33.1010526,-97.224088,VALID
20,W HICKORY ST DENTON TX ,33.2146565,-97.1475676,VALID
21,24XX STOCKBRIDGE RD DENTON TX ,33.1839991,-97.0916819,VALID
22,38XX ATLAS DR DENTON TX ,33.2550754,-97.1245216,VALID
23,78XX ALDERS GATE LN DENTON TX ,33.1707863,-97.0588861,VALID
24,23XX E UNIVERSITY DR DENTON TX ,33.2345383,-97.0783176,VALID
25,4XX AME DR DENTON TX ,33.258715,-97.1331765,VALID
26,23XX LOON LAKE RD DENTON TX ,33.1745164,-97.1068236,VALID
27,35XX S I 35 E DENTON TX ,33.1814754,-97.102065,VALID
28,3XX W UNIVERSITY DR DENTON TX ,33.2303119,-97.1816464,VALID
29,7XX CAMPBELL LN DENTON TX ,33.2181214,-97.1125522,VALID
30,12XX CORDELL ST DENTON TX ,33.2266141,-97.1471889,VALID
31,15XX S LOOP 288 DENTON TX ,33.1970392,-97.0919826,VALID
32,27XX COLORADO BLVD DENTON TX ,33.1875187,-97.1026425,VALID
33,10XX W UNIVERSITY DR DENTON TX ,33.2303119,-97.1816464,VALID
34,18XX S LOOP 288 DENTON TX ,33.1970392,-97.0919826,VALID
35,9XX DIXON LN DENTON TX ,33.2577927,-97.1190785,VALID
36,26XX EDWARDS RD DENTON TX ,33.1780772,-97.0726157,VALID
37,14XX AMHERST DR DENTON TX ,33.2313075,-97.149459,VALID
38,46XX S BONNIE BRAE ST DENTON TX ,33.1837027,-97.1641773,VALID
39,13XX SCRIPTURE ST DENTON TX ,33.2188813,-97.1575335,VALID
40,5XX JANNIE ST DENTON TX ,33.2180124,-97.1154125,VALID
41,33XX E MCKINNEY ST DENTON TX ,33.2115705,-97.0875966,VALID
42,7XX W CONGRESS ST DENTON TX ,33.219372,-97.1407651,VALID
43,10XX FANNIN ST DENTON TX ,33.2053796,-97.1451123,VALID
44,23XX I 35 W DENTON TX ,33.1648139,-97.1855749,VALID
45,53XX E MCKINNEY ST DENTON TX ,33.2115705,-97.0875966,VALID
46,18XX FORT WORTH DR DENTON TX ,33.1675471,-97.1532309,VALID
47,19XX N RUDDELL ST DENTON TX ,33.222033,-97.1178217,VALID
48,TEASLEY LN DENTON TX ,33.1678163,-97.1103429,VALID
49,E PRAIRIE ST DENTON TX ,33.2105793,-97.1259592,VALID
50,5XX NEPTUNE DR DENTON TX ,33.25958,-97.12503,VALID
51,40XX TEASLEY LN DENTON TX ,33.1678163,-97.1103429,VALID
52,6XX BERNARD ST DENTON TX ,33.2010666,-97.1416274,VALID
53,9XX MANHATTAN DR DENTON TX ,33.2471244,-97.1195215,VALID
54,26XX W OAK ST DENTON TX ,33.2157359,-97.1545246,VALID
55,5XX INMAN ST DENTON TX ,33.1986254,-97.1321003,VALID
56,6XX LONDONDERRY LN DENTON TX ,33.1899152,-97.1257002,VALID
57,1XX AVE A DENTON TX ,33.2083388,-97.1462368,VALID
58,BRADLEY ST DENTON TX ,33.217931,-97.1539703,VALID
59,8XX ROSE ST DENTON TX ,33.2199077,-97.1230931,VALID
60,25XX W PRAIRIE ST DENTON TX ,33.2108511,-97.1550899,VALID
61,11XX E MCKINNEY ST DENTON TX ,33.2115705,-97.0875966,VALID
62,22XX S LOOP 288 DENTON TX ,33.1970392,-97.0919826,VALID
63,32XX OCEAN DR DENTON TX ,33.1444947,-97.1004986,VALID
64,64XX I 35 DENTON TX ,33.2802739,-97.177933,VALID
65,4XX E MCKINNEY ST DENTON TX ,33.2115705,-97.0875966,VALID
66,11XX E HICKORY ST DENTON TX ,33.2144196,-97.1253362,VALID
67,20XX HOUSTON PL DENTON TX ,33.2177455,-97.1561587,VALID
68,E OAK ST DENTON TX ,33.2153379,-97.124989,VALID
69,N LOCUST ST DENTON TX ,33.256469,-97.1316417,VALID
70,5XX S ELM ST DENTON TX ,33.2101561,-97.1337726,VALID
71,I 35 DENTON TX ,33.2802739,-97.177933,VALID
72,N LOOP 288 DENTON TX ,33.2584052,-97.1428634,VALID
73,20XX PAISLEY ST DENTON TX ,33.2207581,-97.1094508,VALID
74,1XX S ELM ST DENTON TX ,33.2101561,-97.1337726,VALID
75,7XX S I 35 E DENTON TX ,33.1814754,-97.102065,VALID
76,24XX E MCKINNEY ST DENTON TX ,33.2115705,-97.0875966,VALID
77,35XX OCEANVIEW DR DENTON TX ,33.1742407,-97.0786109,VALID
78,9XX W EAGLE DR DENTON TX ,33.206632,-97.14474,VALID
79,44XX I 35 DENTON TX ,33.2802739,-97.177933,VALID
80,21XX SPENCER RD DENTON TX ,33.1959056,-97.0987982,VALID
81,DALLAS DR DENTON TX ,33.1993677,-97.1242105,VALID
82,9XX SIERRA DR DENTON TX ,33.2479414,-97.1193666,VALID
83,S I 35 E DENTON TX ,33.1814754,-97.102065,VALID
84,4XX N BELL AVE DENTON TX ,33.2310843,-97.1272288,VALID
85,65XX W SHADY SHORES RD DENTON TX ,33.1640049,-97.0722153,VALID
86,47XX SHAGBARK DR DENTON TX ,33.1708229,-97.1663811,VALID
87,4XX N WOOD ST DENTON TX ,33.2179707,-97.1190058,VALID
88,8XX W UNIVERSITY DR DENTON TX ,33.2303119,-97.1816464,VALID
89,89XX I 35 DENTON TX ,33.2802739,-97.177933,VALID
90,28XX NOTTINGHAM DR DENTON TX ,33.2389117,-97.1066916,VALID
91,12XX MCDONALD DR DENTON TX ,33.2043802,-97.1176706,VALID
92,17XX GREENWOOD DR DENTON TX ,33.2353581,-97.1173887,VALID
93,25XX W HICKORY ST DENTON TX ,33.2146565,-97.1475676,VALID
94,10XX DALLAS DR DENTON TX ,33.1993677,-97.1242105,VALID
95,1XX S WOODROW LN DENTON TX ,33.2072363,-97.1120564,VALID
96,17XX TEASLEY LN DENTON TX ,33.1678163,-97.1103429,VALID
97,39XX BLACK BUTTE DR DENTON TX ,33.1522577,-97.0924374,VALID
98,N NORTH TEXAS BLVD DENTON TX ,33.2064112,-97.1534274,VALID
99,10XX S I 35 E DENTON TX ,33.1814754,-97.102065,VALID
100,38XX WATERFORD WAY DENTON TX ,33.1654878,-97.0883441,VALID
101,58XX NEW BALLINGER DR DENTON TX ,33.1404972,-97.1914758,VALID
102,BRINKER RD DENTON TX ,33.1883701,-97.095871,VALID
103,S BELL AVE DENTON TX ,33.2106727,-97.1303383,VALID
104,23XX W PRAIRIE ST DENTON TX ,33.2108511,-97.1550899,VALID
105,78XX MIRROR ROCK LN DENTON TX ,33.1440132,-97.1166313,VALID
106,9XX MCCORMICK ST DENTON TX ,33.1967075,-97.1474472,VALID
107,39XX TEASLEY LN DENTON TX ,33.1678163,-97.1103429,VALID
108,22XX N CARROLL BLVD DENTON TX ,33.2279879,-97.1368644,VALID
109,77XX ALDERS GATE LN DENTON TX ,33.1707863,-97.0588861,VALID
110,17XX PANHANDLE ST DENTON TX ,33.2216193,-97.1526645,VALID
111,15XX E MCKINNEY ST DENTON TX ,33.2115705,-97.0875966,VALID
112,1XX PRECISION DR DENTON TX ,33.2092495,-97.1734151,VALID
113,58XX GREENMEADOW DR DENTON TX ,33.1366182,-97.1922212,VALID
114,3XX DALLAS DR DENTON TX ,33.1993677,-97.1242105,VALID
115,7XX W COLLINS ST DENTON TX ,33.2041237,-97.1393456,VALID
116,94XX TOLEDO BEND DR DENTON TX ,33.1375329,-97.1864983,VALID
117,41XX SONOMA DR DENTON TX ,33.1707058,-97.173622,VALID
118,33XX N MASCH BRANCH RD DENTON TX ,33.2304372,-97.1972384,VALID
119,24XX CHARLOTTE ST DENTON TX ,33.2128177,-97.1597782,VALID
120,32XX TAMARACK LN DENTON TX ,33.1692002,-97.1625201,VALID
121,4XX CAMPBELL LN DENTON TX ,33.2181214,-97.1125522,VALID
122,18XX TEASLEY LN DENTON TX ,33.1678163,-97.1103429,VALID
123,32XX WAGON TRAIL DR DENTON TX ,33.2105967,-97.0983387,VALID
124,31XX BANDERA ST DENTON TX ,33.2313113,-97.1757808,VALID
125,19XX BURNING TREE LN DENTON TX ,33.2427004,-97.1039571,VALID
126,5XX S LOOP 288 DENTON TX ,33.1970392,-97.0919826,VALID
127,2XX W OAK ST DENTON TX ,33.2157359,-97.1545246,VALID
128,3XX S WOODROW LN DENTON TX ,33.2072363,-97.1120564,VALID
129,2XX S MAYHILL RD DENTON TX ,33.1922091,-97.0856294,VALID
130,7XX S ELM ST DENTON TX ,33.2101561,-97.1337726,VALID
131,20XX BURNING TREE LN DENTON TX ,33.2427004,-97.1039571,VALID
132,23XX SAN JACINTO BLVD DENTON TX ,33.1923138,-97.1093771,VALID
133,23XX NORTHWAY DENTON TX ,33.2381598,-97.1645905,VALID
134,1XX N I 35 E DENTON TX ,33.2036084,-97.1504619,VALID
135,32XX BROOKE ST DENTON TX ,33.2470824,-97.1365697,VALID
136,11XX W UNIVERSITY DR DENTON TX ,33.2303119,-97.1816464,VALID
137,34XX VALLEY VIEW RD DENTON TX ,33.25182,-97.1237732,VALID
138,14XX TEASLEY LN DENTON TX ,33.1678163,-97.1103429,VALID
139,W HIGHLAND ST DENTON TX ,33.2093173,-97.1443753,VALID
140,7XX JACKSON ST DENTON TX ,33.2074411,-97.1257632,VALID
141,12XX W HICKORY ST DENTON TX ,33.2146565,-97.1475676,VALID
142,36XX SALON CT DENTON TX ,33.1543277,-97.0965248,VALID
143,16XX W UNIVERSITY DR DENTON TX ,33.2303119,-97.1816464,VALID
144,37XX N ELM ST DENTON TX ,33.2483035,-97.1480169,VALID
145,28XX S I 35 E DENTON TX ,33.1814754,-97.102065,VALID
146,39XX N ELM ST DENTON TX ,33.2483035,-97.1480169,VALID
147,4XX S CARROLL BLVD DENTON TX ,33.2093664,-97.137149,VALID
148,30XX BOB-O-LINK LN DENTON TX ,33.2172619,-97.0957283,VALID
149,1XX N BONNIE BRAE ST DENTON TX ,33.2460697,-97.1605525,VALID
150,28XX W UNIVERSITY DR DENTON TX ,33.2303119,-97.1816464,VALID
151,35XX POCKRUS PAGE RD DENTON TX ,33.1709825,-97.077112,VALID
152,17XX N CARROLL BLVD DENTON TX ,33.2279879,-97.1368644,VALID
153,22XX GEORGETOWN DR DENTON TX ,33.2344678,-97.1513962,VALID
154,S WELCH ST DENTON TX ,33.2093173,-97.1443753,VALID
155,10XX WILSON ST DENTON TX ,33.2081469,-97.1208293,VALID
156,17XX CARLTON ST DENTON TX ,33.2248502,-97.1517201,VALID
157,9XX CIRCLE VIEW LN DENTON TX ,33.1547049,-97.1256458,VALID
158,S LOCUST ST DENTON TX ,33.2025721,-97.1335834,VALID
159,W OAK ST DENTON TX ,33.2157359,-97.1545246,VALID
160,32XX CLYDESDALE DR DENTON TX ,33.1576232,-97.0979517,VALID
161,1XX W HICKORY ST DENTON TX ,33.2146565,-97.1475676,VALID
162,16XX E MCKINNEY ST DENTON TX ,33.2115705,-97.0875966,VALID
163,15XX CARRIGAN LN DENTON TX ,33.2516161,-97.1440095,VALID
164,5XX E WINDSOR DR DENTON TX ,33.2439517,-97.1120302,VALID
165,11XX N LOCUST ST DENTON TX ,33.256469,-97.1316417,VALID
166,1XX HANN ST DENTON TX ,33.221583,-97.1311174,VALID
167,1XX SAWYER AVE DENTON TX ,33.2235419,-97.1311323,VALID
168,12XX E HICKORY ST DENTON TX ,33.2144196,-97.1253362,VALID
169,25XX SCRIPTURE ST DENTON TX ,33.2188813,-97.1575335,VALID
170,21XX STELLA ST DENTON TX ,33.2137895,-97.1586493,VALID
171,18XX W UNIVERSITY DR DENTON TX ,33.2303119,-97.1816464,VALID
172,32XX FALLMEADOW ST DENTON TX ,33.24879,-97.14066,VALID
173,6XX GARDENVIEW CIR DENTON TX ,33.2477881,-97.1414828,VALID
174,S FM 2499 DENTON TX ,33.1616795,-97.0928992,VALID
175,33XX FALLMEADOW ST DENTON TX ,33.24879,-97.14066,VALID
176,11XX S LOOP 288 DENTON TX ,33.1970392,-97.0919826,VALID
177,N I 35 E DENTON TX ,33.2036084,-97.1504619,VALID
178,8XX W EAGLE DR DENTON TX ,33.206632,-97.14474,VALID
179,1XX MASSEY ST DENTON TX ,33.1877312,-97.1406436,VALID
180,34XX JOYCE LN DENTON TX ,33.2460081,-97.1387378,VALID
181,3XX N RUDDELL ST DENTON TX ,33.222033,-97.1178217,VALID
182,23XX S LOOP 288 DENTON TX ,33.1970392,-97.0919826,VALID
183,29XX BRIGHTON CIR DENTON TX ,33.1717892,-97.0935499,VALID
184,33XX E UNIVERSITY DR DENTON TX ,33.2345383,-97.0783176,VALID
185,12XX W OAK ST DENTON TX ,33.2157359,-97.1545246,VALID
186,6XX CHAMBERS ST DENTON TX ,33.2031664,-97.127504,VALID
187,24XX S I 35 E DENTON TX ,33.1814754,-97.102065,VALID
188,20XX TEASLEY LN DENTON TX ,33.1678163,-97.1103429,VALID
189,11XX E UNIVERSITY DR DENTON TX ,33.2345383,-97.0783176,VALID
190,6XX CAMPBELL LN DENTON TX ,33.2181214,-97.1125522,VALID
191,13XX N MAYHILL RD DENTON TX ,33.2218988,-97.0831971,VALID
192,36XX CAMINO REAL TRL DENTON TX ,33.1747817,-97.0767076,VALID
193,42XX I 35 DENTON TX ,33.2802739,-97.177933,VALID
194,33XX SWISHER RD DENTON TX ,33.1298193,-97.0354104,VALID
195,7XX ALLISE CIR DENTON TX ,33.223191,-97.0993724,VALID
196,12XX E UNIVERSITY DR DENTON TX ,33.2345383,-97.0783176,VALID
197,27XX N BELL AVE DENTON TX ,33.2310843,-97.1272288,VALID
198,13XX S LOOP 288 DENTON TX ,33.1970392,-97.0919826,VALID
199,35XX E MCKINNEY ST DENTON TX ,33.2115705,-97.0875966,VALID
200,ROSELAWN DR DENTON TX ,33.1846168,-97.1479993,VALID
201,84XX W UNIVERSITY DR DENTON TX ,33.2303119,-97.1816464,VALID
202,6XX N I 35 E DENTON TX ,33.2036084,-97.1504619,VALID
203,6XX NORTHRIDGE ST DENTON TX ,33.2410372,-97.1394108,VALID
204,32XX UNICORN LAKE BLVD DENTON TX ,33.1716801,-97.0957739,VALID
205,50XX MILLS RD DENTON TX ,33.2152229,-97.0713378,VALID
206,28XX STOCKTON ST DENTON TX ,33.2301855,-97.1018769,VALID
207,18XX N RUDDELL ST DENTON TX ,33.222033,-97.1178217,VALID
208,3XX STOCKADE LN DENTON TX ,33.2105981,-97.098756,VALID
209,35XX SEASIDE DR DENTON TX ,33.1752685,-97.0780171,VALID
210,55XX SOLEDAD DR DENTON TX ,33.1720626,-97.0768019,VALID
211,12XX S LOOP 288 DENTON TX ,33.1970392,-97.0919826,VALID
212,32XX S I 35 E DENTON TX ,33.1814754,-97.102065,VALID
213,45XX I 35 DENTON TX ,33.2802739,-97.177933,VALID
214,9XX KINGS ROW DENTON TX ,33.2490386,-97.1062357,VALID
215,8XX E MCKINNEY ST DENTON TX ,33.2115705,-97.0875966,VALID
216,4XX N RUDDELL ST DENTON TX ,33.222033,-97.1178217,VALID
217,5XX LONDONDERRY LN DENTON TX ,33.1899152,-97.1257002,VALID
218,2XX S BONNIE BRAE ST DENTON TX ,33.1837027,-97.1641773,VALID
219,32XX HERITAGE TRL DENTON TX ,33.2245502,-97.1661732,VALID
220,18XX LE SAGE CT DENTON TX ,33.2520654,-97.1072638,VALID
221,2XX E MCKINNEY ST DENTON TX ,33.2115705,-97.0875966,VALID
222,CORDELL ST DENTON TX ,33.2266141,-97.1471889,VALID
223,11XX MALONE ST DENTON TX ,33.2281522,-97.1497076,VALID
224,20XX SOUTHRIDGE DR DENTON TX ,33.1855332,-97.1141978,VALID
225,88XX BLUE SKY LN DENTON TX ,33.1393284,-97.1140104,VALID
226,31XX WIND RIVER LN DENTON TX ,33.1768723,-97.1039668,VALID
227,21XX SADAU CT DENTON TX ,33.1889951,-97.1027203,VALID
228,12XX MORSE ST DENTON TX ,33.2050266,-97.1104501,VALID
229,2XX JOSHUA ST DENTON TX ,33.2175454,-97.0997246,VALID
230,28XX N LOCUST ST DENTON TX ,33.256469,-97.1316417,VALID
231,4XX W UNIVERSITY DR DENTON TX ,33.2303119,-97.1816464,VALID
232,12XX BENT OAKS CT DENTON TX ,33.1718259,-97.1120835,VALID
233,33XX CASA GRANDE DR DENTON TX ,33.173075,-97.1070142,VALID
234,12XX W UNIVERSITY DR DENTON TX ,33.2303119,-97.1816464,VALID
235,28XX S MAYHILL RD DENTON TX ,33.1922091,-97.0856294,VALID
236,38XX YELLOWSTONE PL DENTON TX ,33.2518053,-97.1199342,VALID
237,30XX N ELM ST DENTON TX ,33.2483035,-97.1480169,VALID
238,39XX STATE SCHOOL RD DENTON TX ,33.1695164,-97.0906569,VALID
239,24XX W PRAIRIE ST DENTON TX ,33.2108511,-97.1550899,VALID
240,14XX CENTRE PLACE DR DENTON TX ,33.1976901,-97.1289907,VALID
241,15XX I 35 W DENTON TX ,33.1648139,-97.1855749,VALID
242,3XX MARIETTA ST DENTON TX ,33.2172696,-97.151869,VALID
243,66XX GRISSOM RD DENTON TX ,33.2020935,-97.063071,VALID
244,1XX DUCHESS DR DENTON TX ,33.2096291,-97.0996858,VALID
245,8XX ALLEN ST DENTON TX ,33.2069002,-97.1285035,VALID
246,19XX SAM BASS BLVD DENTON TX ,33.1925527,-97.1312411,VALID
247,NORTH TEXAS BLVD DENTON TX ,33.2064112,-97.1534274,VALID
248,9XX W UNIVERSITY DR DENTON TX ,33.2303119,-97.1816464,VALID
249,25XX STOCKBRIDGE RD DENTON TX ,33.1839991,-97.0916819,VALID
250,24XX N BELL AVE DENTON TX ,33.2310843,-97.1272288,VALID
251,38XX INWOOD CT DENTON TX ,33.2521132,-97.1083856,VALID
252,39XX E MCKINNEY ST DENTON TX ,33.2115705,-97.0875966,VALID
253,35XX WOODTHRUSH LN DENTON TX ,33.2172858,-97.0933806,VALID
254,1XX W MULBERRY ST DENTON TX ,33.2135492,-97.1427608,VALID
255,58XX I 35 DENTON TX ,33.2802739,-97.177933,VALID
256,132XX I 35 DENTON TX ,33.2802739,-97.177933,VALID
257,28XX FORT WORTH DR DENTON TX ,33.1675471,-97.1532309,VALID
258,31XX WAGON TRAIL DR DENTON TX ,33.2105967,-97.0983387,VALID
259,5XX E EL PASEO ST DENTON TX ,33.1681658,-97.1268846,VALID
260,28XX N ELM ST DENTON TX ,33.2483035,-97.1480169,VALID
261,29XX SHORELINE DR DENTON TX ,33.1734496,-97.0992169,VALID
262,50XX PELICAN CT DENTON TX ,33.1743231,-97.0786659,VALID
263,1XX E OAK ST DENTON TX ,33.2153379,-97.124989,VALID
264,9XX W CONGRESS ST DENTON TX ,33.219372,-97.1407651,VALID
265,4XX PONDER AVE DENTON TX ,33.2194588,-97.1446415,VALID
266,10XX E HICKORY ST DENTON TX ,33.2144196,-97.1253362,VALID
267,49XX I 35 DENTON TX ,33.2802739,-97.177933,VALID
268,7XX OAKLAND ST DENTON TX ,33.2209425,-97.1299558,VALID
269,50XX TEASLEY LN DENTON TX ,33.1678163,-97.1103429,VALID
270,5XX OAKLAND ST DENTON TX ,33.2209425,-97.1299558,VALID
271,FORT WORTH DR DENTON TX ,33.194245,-97.1276202,VALID
272,3XX MACK DR DENTON TX ,33.2188328,-97.1059963,VALID
273,16XX VILLAGE EAST DR DENTON TX ,33.2341069,-97.1009876,VALID
274,14XX PACO TRL DENTON TX ,33.2220273,-97.1161179,VALID
275,32XX I 35 DENTON TX ,33.2802739,-97.177933,VALID
276,36XX I 35 DENTON TX ,33.2802739,-97.177933,VALID
277,20XX STOCKBRIDGE RD DENTON TX ,33.1839991,-97.0916819,VALID
278,27XX GEESLING RD DENTON TX ,33.2342478,-97.0729387,VALID
279,13XX BROADWAY ST DENTON TX ,33.222518,-97.1483385,VALID
280,16XX S LOOP 288 DENTON TX ,33.1970392,-97.0919826,VALID
281,35XX CRISOFORO DR DENTON TX ,33.2521413,-97.1470132,VALID
282,57XX BALMORHEA DR DENTON TX ,33.1376924,-97.1887055,VALID
283,34XX CAMINO REAL TRL DENTON TX ,33.1747817,-97.0767076,VALID
284,41XX BOXWOOD DR DENTON TX ,33.1723704,-97.0643787,VALID
285,20XX E MCKINNEY ST DENTON TX ,33.2115705,-97.0875966,VALID
286,10XX KINGS ROW DENTON TX ,33.2490386,-97.1062357,VALID
287,46XX ARGYLE LN DENTON TX ,33.1518064,-97.1545305,VALID
288,3XX N CARROLL BLVD DENTON TX ,33.2279879,-97.1368644,VALID
289,7XX S LOOP 288 DENTON TX ,33.1970392,-97.0919826,VALID
290,LAKEVIEW BLVD DENTON TX ,33.2257982,-97.0604461,VALID
291,22XX W UNIVERSITY DR DENTON TX ,33.2303119,-97.1816464,VALID
292,5XX W HICKORY ST DENTON TX ,33.2146565,-97.1475676,VALID
293,5XX S CARROLL BLVD DENTON TX ,33.2093664,-97.137149,VALID
294,1XX INDUSTRIAL ST DENTON TX ,33.211199,-97.1301502,VALID
295,13XX BAYFIELD ST DENTON TX ,33.2300635,-97.0940433,VALID
296,4XX CORONADO DR DENTON TX ,33.2394263,-97.1271636,VALID
297,35XX QUAIL CREEK DR DENTON TX ,33.1860396,-97.0939245,VALID
298,10XX FULTON ST DENTON TX ,33.2229049,-97.1433472,VALID
299,13XX FULTON ST DENTON TX ,33.2229049,-97.1433472,VALID
300,1XX W OAK ST DENTON TX ,33.2157359,-97.1545246,VALID
301,JOHNSON ST DENTON TX ,33.203311,-97.1310622,VALID
302,6XX W EAGLE DR DENTON TX ,33.206632,-97.14474,VALID
303,22XX W OAK ST DENTON TX ,33.2157359,-97.1545246,VALID
304,19XX DENISON ST DENTON TX ,33.2345695,-97.1357041,VALID
305,7XX TEXAS ST DENTON TX ,33.2222473,-97.123652,VALID
306,23XX W UNIVERSITY DR DENTON TX ,33.2303119,-97.1816464,VALID
307,37XX POCKRUS PAGE RD DENTON TX ,33.1709825,-97.077112,VALID
308,11XX MULKEY LN DENTON TX ,33.2215732,-97.1112194,VALID
309,18XX E MCKINNEY ST DENTON TX ,33.2115705,-97.0875966,VALID
310,8XX S I 35 E DENTON TX ,33.1814754,-97.102065,VALID
311,E MCKINNEY ST DENTON TX ,33.2115705,-97.0875966,VALID
312,9XX HILL ST DENTON TX ,33.204549,-97.1252899,VALID
313,30XX W UNIVERSITY DR DENTON TX ,33.2303119,-97.1816464,VALID
314,61XX ST JAMES PL DENTON TX ,33.1525246,-97.1003187,VALID
315,29XX W UNIVERSITY DR DENTON TX ,33.2303119,-97.1816464,VALID
316,2XX MAPLE ST DENTON TX ,33.2082019,-97.1428479,VALID
317,20XX CHERRYWOOD LN DENTON TX ,33.2339297,-97.1219013,VALID
318,6XX OAKLAND ST DENTON TX ,33.2209425,-97.1299558,VALID
319,22XX FORT WORTH DR DENTON TX ,33.1675471,-97.1532309,VALID
320,30XX PENNIMAN RD DENTON TX ,33.223932,-97.0986677,VALID
321,13XX WINDSTREAM ST DENTON TX ,33.2436869,-97.1233638,VALID
322,7XX WINDSWEPT CT DENTON TX ,33.2436994,-97.1238224,VALID
323,6XX WINDFIELDS ST DENTON TX ,33.2430187,-97.1241861,VALID
324,6XX WINDSWEPT CT DENTON TX ,33.2436994,-97.1238224,VALID
325,96XX JIM CHRISTAL RD DENTON TX ,33.2201562,-97.2053052,VALID
326,22XX SAN JACINTO BLVD DENTON TX ,33.1923138,-97.1093771,VALID
327,5XX FORT WORTH DR DENTON TX ,33.1675471,-97.1532309,VALID
328,17XX BRINKER RD DENTON TX ,33.1883701,-97.095871,VALID
329,12XX CLEVELAND ST DENTON TX ,33.2041349,-97.1379203,VALID
330,20XX FAIRMOUNT PARK DR DENTON TX ,33.1516868,-97.1099244,VALID
331,3XX E SYCAMORE ST DENTON TX ,33.2124371,-97.125394,VALID
332,17XX VILLAGE EAST DR DENTON TX ,33.2341069,-97.1009876,VALID
333,39XX LARIAT RD DENTON TX ,33.2357069,-97.1906173,VALID
334,17XX S LOOP 288 DENTON TX ,33.1970392,-97.0919826,VALID
335,27XX E MCKINNEY ST DENTON TX ,33.2115705,-97.0875966,VALID
336,56XX PARKPLACE DR DENTON TX ,33.1341609,-97.1880513,VALID
337,10XX E MCKINNEY ST DENTON TX ,33.2115705,-97.0875966,VALID
338,S CARROLL BLVD DENTON TX ,33.2093664,-97.137149,VALID
339,22XX JAGUAR FRISCO TX ,33.1246732,-96.80611789999999,VALID
340,3XX MILL ST DENTON TX ,33.2064589,-97.1280704,VALID
341,12XX POINSETTIA BLVD DENTON TX ,33.2543469,-97.1106221,VALID
342,38XX DREXEL DR DENTON TX ,33.1605368,-97.0961357,VALID
343,48XX ARGYLE LN DENTON TX ,33.1518064,-97.1545305,VALID
344,9XX BEECHWOOD DR DENTON TX ,33.168017,-97.1449429,VALID
345,3XX NORMAL ST DENTON TX ,33.2171112,-97.1491473,VALID
346,9XX CLEVELAND ST DENTON TX ,33.2041349,-97.1379203,VALID
347,6XX N CRAWFORD ST DENTON TX ,33.2179936,-97.120214,VALID
348,38XX LA MANCHA LN DENTON TX ,33.1633006,-97.1188442,VALID
349,29XX MONTECITO RD DENTON TX ,33.1606932,-97.1198416,VALID
350,10XX GREENLEE ST DENTON TX ,33.2018406,-97.1462016,VALID
351,34XX LIPIZZAN DR DENTON TX ,33.1516303,-97.1017658,VALID
352,26XX BUCKINGHAM DR DENTON TX ,33.2531312,-97.1176578,VALID
353,7XX LONDONDERRY LN DENTON TX ,33.1899152,-97.1257002,VALID
354,30XX E UNIVERSITY DR DENTON TX ,33.2345383,-97.0783176,VALID
355,9XX FANNIN ST DENTON TX ,33.2053796,-97.1451123,VALID
356,17XX N RUDDELL ST DENTON TX ,33.222033,-97.1178217,VALID
357,28XX DANA LN DENTON TX ,33.2213901,-97.0993495,VALID
358,I 35 W DENTON TX ,33.1648139,-97.1855749,VALID
359,33XX W UNIVERSITY DR DENTON TX ,33.2303119,-97.1816464,VALID
360,7XX E SHERMAN DR DENTON TX ,33.276093,-97.0962546,VALID
361,22XX BRINKER RD DENTON TX ,33.1883701,-97.095871,VALID
362,14XX DALLAS DR DENTON TX ,33.1993677,-97.1242105,VALID
363,44XX LAKEVIEW BLVD DENTON TX ,33.2257982,-97.0604461,VALID
364,33XX EVERS PKWY DENTON TX ,33.2468056,-97.1354931,VALID
365,8XX W SYCAMORE ST DENTON TX ,33.2126151,-97.1438642,VALID
366,5XX N I 35 E DENTON TX ,33.2036084,-97.1504619,VALID
367,38XX STUART RD DENTON TX ,33.253604,-97.1221225,VALID
368,24XX FORT WORTH DR DENTON TX ,33.1675471,-97.1532309,VALID
369,18XX SCRIPTURE ST DENTON TX ,33.2188813,-97.1575335,VALID
370,2XX FORT WORTH DR DENTON TX ,33.1675471,-97.1532309,VALID
371,12XX DALLAS DR DENTON TX ,33.1993677,-97.1242105,VALID
372,10XX URBAN DR DESOTO TX ,32.5723595,-96.85126,VALID
373,22XX W HICKORY ST DENTON TX ,33.2146565,-97.1475676,VALID
374,89XX GLEN FALLS LN DENTON TX ,33.1395542,-97.1150059,VALID
375,30XX COLORADO BLVD DENTON TX ,33.1875187,-97.1026425,VALID
376,15XX RINEY RD DENTON TX ,33.2490831,-97.1517612,VALID
377,14XX FOX HOLLOW ST DENTON TX ,33.1968736,-97.1148378,VALID
378,31XX DOMINION ST DENTON TX ,33.2438391,-97.0939833,VALID
379,4XX FORT WORTH DR DENTON TX ,33.1675471,-97.1532309,VALID
380,1XX Stacey Rd ALLEN TX ,33.1299329,-96.6753089,VALID
381,9XX N MAYHILL RD DENTON TX ,33.2218988,-97.0831971,VALID
382,7XX S WOODROW LN DENTON TX ,33.2072363,-97.1120564,VALID
383,32XX HOLLYCREEK ST DENTON TX ,33.2462577,-97.128733,VALID
384,3XX E HICKORY ST DENTON TX ,33.2144196,-97.1253362,VALID
385,14XX BERNARD ST DENTON TX ,33.2010666,-97.1416274,VALID
386,204XX MCMEANS DR HOUSTON TX ,29.9856747,-95.4032429,VALID
387,6XX JANNIE ST DENTON TX ,33.2180124,-97.1154125,VALID
388,16XX N CARROLL BLVD DENTON TX ,33.2279879,-97.1368644,VALID
389,3XX E MCKINNEY ST DENTON TX ,33.2115705,-97.0875966,VALID
390,3XX WESTWAY ST DENTON TX ,33.2286784,-97.139311,VALID
391,14XX BOLIVAR ST DENTON TX ,33.2283073,-97.1348068,VALID
392,2XX W HICKORY ST DENTON TX ,33.2146565,-97.1475676,VALID
393,9XX S MAYHILL RD DENTON TX ,33.1922091,-97.0856294,VALID
394,8XX MACK DR DENTON TX ,33.2188328,-97.1059963,VALID
395,26XX SCRIPTURE ST DENTON TX ,33.2188813,-97.1575335,VALID
396,17XX BERNARD ST DENTON TX ,33.2010666,-97.1416274,VALID
397,15XX CENTRE PLACE DR DENTON TX ,33.1976901,-97.1289907,VALID
398,22XX CORSAIR LN DENTON TX ,33.1646364,-97.1117778,VALID
399,30XX N LOCUST ST DENTON TX ,33.256469,-97.1316417,VALID
400,37XX JUNIPERIO ST DENTON TX ,33.1723697,-97.074372,VALID
401,50XX W UNIVERSITY DR DENTON TX ,33.2303119,-97.1816464,VALID
402,50XX DAKOTA LN DENTON TX ,33.1992175,-97.1781005,VALID
403,22XX WESTCOURT RD DENTON TX ,33.1963409,-97.1904954,VALID
404,38XX MONTECITO RD DENTON TX ,33.1606932,-97.1198416,VALID
405,9XX MONTEREY DR DENTON TX ,33.2462387,-97.1194223,VALID
406,30XX I 35 DENTON TX ,33.2802739,-97.177933,VALID
407,7XX JANNIE ST DENTON TX ,33.2180124,-97.1154125,VALID
408,19XX JASON DR DENTON TX ,33.1897491,-97.1272781,VALID
409,33XX BRIGHTON DR DENTON TX ,33.1713578,-97.0929285,VALID
410,39XX MORSE ST DENTON TX ,33.2050266,-97.1104501,VALID
411,15XX BELCLAIRE SAN ANTONIO TX ,29.6170062,-98.5141463,VALID
412,MINGO RD DENTON TX ,33.2314612,-97.1056244,VALID
413,32XX STATE SCHOOL RD DENTON TX ,33.1695164,-97.0906569,VALID
414,65XX SHADY SHORES RD DENTON TX ,33.1640049,-97.0722153,VALID
415,3XX S BRADSHAW ST DENTON TX ,33.2100483,-97.1215277,VALID
416,4XX BERNARD ST DENTON TX ,33.2010666,-97.1416274,VALID
417,22XX N BELL AVE DENTON TX ,33.2310843,-97.1272288,VALID
418,W MCKINNEY ST DENTON TX ,33.2169694,-97.1348793,VALID
419,4XX W PARKWAY ST DENTON TX ,33.2180686,-97.1358893,VALID
420,6XX SMITH ST DENTON TX ,33.2021306,-97.1270243,VALID
421,3XX S WOOD ST DENTON TX ,33.2129609,-97.1185275,VALID
422,8XX N RUDDELL ST DENTON TX ,33.222033,-97.1178217,VALID
423,3XX N I 35 E DENTON TX ,33.2036084,-97.1504619,VALID
424,34XX FALLMEADOW ST DENTON TX ,33.24879,-97.14066,VALID
425,S LOOP 288 DENTON TX ,33.1970392,-97.0919826,VALID
426,80XX SWAN PARK DR DENTON TX ,33.1421911,-97.1139245,VALID
427,6XX S ELM ST DENTON TX ,33.2101561,-97.1337726,VALID
428,52XX PEBBLE BEACH TRL DENTON TX ,33.1715847,-97.0802235,VALID
429,JOYCE LN DENTON TX ,33.2460081,-97.1387378,VALID
430,S MAYHILL RD DENTON TX ,33.1922091,-97.0856294,VALID
431,17XX SAM BASS BLVD DENTON TX ,33.1925527,-97.1312411,VALID
432,14XX SANTOS DR DENTON TX ,33.2500862,-97.1448758,VALID
433,GLENWOOD LN DENTON TX ,33.2382124,-97.115532,VALID
434,21XX BOLIVAR ST DENTON TX ,33.2283073,-97.1348068,VALID
435,10XX RAMEY CIR DENTON TX ,33.2036186,-97.1153014,VALID
436,40XX MESA DR DENTON TX ,33.2330179,-97.1769434,VALID
437,12XX MCCORMICK ST DENTON TX ,33.1967075,-97.1474472,VALID
438,12XX AVE A DENTON TX ,33.2083388,-97.1462368,VALID
439,9XX EGAN ST DENTON TX ,33.2203978,-97.1422526,VALID
440,29XX BRIERCLIFF DR DENTON TX ,33.1726111,-97.0930116,VALID
441,8XX W COLLINS ST DENTON TX ,33.2041237,-97.1393456,VALID
442,11XX AVE A DENTON TX ,33.2083388,-97.1462368,VALID
443,7XX CRESCENT ST DENTON TX ,33.2257629,-97.1497812,VALID
444,14XX E RYAN RD DENTON TX ,33.161471,-97.1246831,VALID
445,5XX N BELL AVE DENTON TX ,33.2310843,-97.1272288,VALID
446,MORSE ST DENTON TX ,33.2050266,-97.1104501,VALID
447,59XX GLENWOOD DR DENTON TX ,33.1705303,-97.0779894,VALID
448,40XX I 35 DENTON TX ,33.2802739,-97.177933,VALID
449,12XX PEAK ST DENTON TX ,33.2036963,-97.1425779,VALID
450,61XX HIGHFIELD PARK DENTON TX ,33.1531012,-97.0993787,VALID
451,25XX NATCHEZ TRCE DENTON TX ,33.1814864,-97.1066903,VALID
452,182XX MARSH LN DALLAS TX ,32.9182242,-96.8558728,VALID
453,N TRINITY RD DENTON TX ,33.227038,-97.0546798,VALID
454,31XX TOWN CENTER TRL DENTON TX ,33.2287035,-97.1694331,VALID
455,5XX S I 35 E DENTON TX ,33.1814754,-97.102065,VALID
456,4XX RUTH ST DENTON TX ,33.2053807,-97.1274001,VALID
457,2XX N LOOP 288 DENTON TX ,33.2584052,-97.1428634,VALID
458,56XX SEA COVE LN DENTON TX ,33.1776434,-97.073285,VALID
459,18XX GEESLING RD DENTON TX ,33.2342478,-97.0729387,VALID
460,13XX PANHANDLE ST DENTON TX ,33.2216193,-97.1526645,VALID
461,1XX W UNIVERSITY DR DENTON TX ,33.2303119,-97.1816464,VALID
462,20XX W HICKORY ST DENTON TX ,33.2146565,-97.1475676,VALID
463,23XX LONGMEADOW CT DENTON TX ,33.2174555,-97.1066865,VALID
464,10XX W EAGLE DR DENTON TX ,33.206632,-97.14474,VALID
465,AMHERST DR DENTON TX ,33.2313075,-97.149459,VALID
466,26XX ARABIAN AVE DENTON TX ,33.1699858,-97.104288,VALID
467,2XX S WOODROW LN DENTON TX ,33.2072363,-97.1120564,VALID
468,7XX ROSE ST DENTON TX ,33.2199077,-97.1230931,VALID
469,33XX STONECROP TRL DENTON TX ,33.171187,-97.1618373,VALID
470,16XX BRINKER RD DENTON TX ,33.1883701,-97.095871,VALID
471,4XX W OAK ST DENTON TX ,33.2157359,-97.1545246,VALID
472,31XX TEASLEY LN DENTON TX ,33.1678163,-97.1103429,VALID
473,10XX PARVIN ST DENTON TX ,33.1910354,-97.1518136,VALID
474,7XX HERCULES LN DENTON TX ,33.2541798,-97.12977,VALID
475,14XX LA MIRADA DENTON TX ,33.2534129,-97.1105718,VALID
476,1XX BERNARD ST DENTON TX ,33.2010666,-97.1416274,VALID
477,11XX HILL ST DENTON TX ,33.204549,-97.1252899,VALID
478,13XX DALLAS DR DENTON TX ,33.1993677,-97.1242105,VALID
479,5XX S BRADSHAW ST DENTON TX ,33.2100483,-97.1215277,VALID
480,21XX JASMINE ST DENTON TX ,33.1925599,-97.1590356,VALID
481,SWEETGATE LN DENTON TX ,33.1790368,-97.0559696,VALID
482,42XX S I 35 E DENTON TX ,33.1814754,-97.102065,VALID
483,ED ROBSON BLVD DENTON TX ,33.1511048,-97.2384521,VALID
484,6XX E MCKINNEY ST DENTON TX ,33.2115705,-97.0875966,VALID
485,28XX BARNES DR DENTON TX ,33.2220548,-97.099303,VALID
486,N ELM ST DENTON TX ,33.2483035,-97.1480169,VALID
487,4XX FOX CREEK CT DENTON TX ,33.2177906,-97.1051086,VALID
488,10XX SIERRA DR DENTON TX ,33.2479414,-97.1193666,VALID
489,2XX FOREST ST DENTON TX ,33.2339523,-97.1305686,VALID
490,1XX E EAGLE DR DENTON TX ,33.206632,-97.14474,VALID
491,7XX MULKEY LN DENTON TX ,33.2215732,-97.1112194,VALID
492,28XX HOLLOW RIDGE DR DENTON TX ,33.1684747,-97.1045152,VALID
493,17XX CRESCENT ST DENTON TX ,33.2257629,-97.1497812,VALID
494,30XX GROVELAND TER DENTON TX ,33.1472386,-97.1003503,VALID
495,10XX REED RD DENTON TX ,33.2034041,-97.1184526,VALID
496,9XX GREENBEND DR DENTON TX ,33.1687587,-97.1449362,VALID
497,27XX ARABIAN AVE DENTON TX ,33.1699858,-97.104288,VALID
498,2XX BLACKBERRY WAY DENTON TX ,33.1566117,-97.128993,VALID
499,36XX CLYDESDALE DR DENTON TX ,33.1576232,-97.0979517,VALID
500,3XX FRY ST DENTON TX ,33.216643,-97.1464272,VALID
501,5XX RETAMA ST DENTON TX ,33.25233,-97.125883,VALID
502,52XX PAR DR DENTON TX ,33.1792841,-97.0765968,VALID
503,27XX HEREFORD RD DENTON TX ,33.1692332,-97.1040616,VALID
504,28XX ARABIAN AVE DENTON TX ,33.1699858,-97.104288,VALID
505,32XX BRETON DR DENTON TX ,33.1554298,-97.101599,VALID
506,14XX S LOOP 288 DENTON TX ,33.1970392,-97.0919826,VALID
507,32XX HERRING CT DENTON TX ,33.1763498,-97.1028714,VALID
508,16XX W OAK ST DENTON TX ,33.2157359,-97.1545246,VALID
509,E RYAN RD DENTON TX ,33.161471,-97.1246831,VALID
510,28XX FORRESTRIDGE DR DENTON TX ,33.1689178,-97.1294577,VALID
511,11XX SOUTHMONT DR DENTON TX ,33.1734973,-97.1194246,VALID
512,32XX TEASLEY LN DENTON TX ,33.1678163,-97.1103429,VALID
513,25XX W UNIVERSITY DR DENTON TX ,33.2303119,-97.1816464,VALID
514,5XX PARK LN DENTON TX ,33.2045652,-97.1265278,VALID
515,27XX NORTHCREST RD DENTON TX ,33.2389959,-97.1021072,VALID
516,XX ROLLING HILLS CIR DENTON TX ,33.1694596,-97.1308561,VALID
517,9XX S LOCUST ST DENTON TX ,33.2025721,-97.1335834,VALID
518,8XX SUMMER OAKS DR DENTON TX ,33.2216698,-97.1048929,VALID
519,22XX OVERLOOK LN DENTON TX ,33.2384188,-97.1662471,VALID
520,15XX MALONE ST DENTON TX ,33.2281522,-97.1497076,VALID
521,28XX LONESOME TRL DENTON TX ,33.1524114,-97.1036136,VALID
522,25XX YELLOWSTONE PL DENTON TX ,33.2518053,-97.1199342,VALID
523,26XX HUNTINGTON DR DENTON TX ,33.2546206,-97.1187429,VALID
524,6XX DENTON ST DENTON TX ,33.2197983,-97.1390881,VALID
525,18XX E RYAN RD DENTON TX ,33.161471,-97.1246831,VALID
526,135XX I 35 DENTON TX ,33.2802739,-97.177933,VALID
527,9XX SUN VALLEY DR DENTON TX ,33.2529166,-97.1212774,VALID
528,LONG RD DENTON TX ,33.2635351,-97.1166163,VALID
529,34XX AVON DR DENTON TX ,33.2468042,-97.1145188,VALID
530,15XX PICKWICK LN DENTON TX ,33.2476103,-97.1104038,VALID
531,7XX S LOCUST ST DENTON TX ,33.2025721,-97.1335834,VALID
532,11XX VINE ST DENTON TX ,33.22341,-97.1261824,VALID
533,19XX BERNARD ST DENTON TX ,33.2010666,-97.1416274,VALID
534,3XX W PRAIRIE ST DENTON TX ,33.2108511,-97.1550899,VALID
535,40XX TUSCANY CT DENTON TX ,33.1715377,-97.1714172,VALID
536,47XX REDBUD DR DENTON TX ,33.1687774,-97.07157,VALID
537,40XX S I 35 E DENTON TX ,33.1814754,-97.102065,VALID
538,POST OAK DR CORINTH TX ,33.1462805,-97.0794068,VALID
539,13XX E MCKINNEY ST DENTON TX ,33.2115705,-97.0875966,VALID
540,31XX KAPPWOOD CT DENTON TX ,33.1702398,-97.1444994,VALID
541,25XX LOUISE ST DENTON TX ,33.211833,-97.1598019,VALID
542,4XX E OAK ST DENTON TX ,33.2153379,-97.124989,VALID
543,18XX SHADY OAKS DR DENTON TX ,33.2008585,-97.1064494,VALID
544,STATE SCHOOL RD DENTON TX ,33.1695164,-97.0906569,VALID
545,25XX TAHOE LN DENTON TX ,33.1773195,-97.1075685,VALID
546,28XX HOWARD CT DENTON TX ,33.22551,-97.0989711,VALID
547,81XX SETTLEMENT DR DENTON TX ,33.1444128,-97.1129627,VALID
548,18XX WESTRIDGE ST DENTON TX ,33.1981767,-97.1538513,VALID
549,60XX THOROUGHBRED TRL DENTON TX ,33.1538329,-97.096408,VALID
550,27XX N ELM ST DENTON TX ,33.2483035,-97.1480169,VALID
551,7XX WOLFTRAP DR DENTON TX ,33.2460767,-97.1237708,VALID
552,22XX HIGH MEADOW DR DENTON TX ,33.2498362,-97.1030286,VALID
553,2XX N BONNIE BRAE ST DENTON TX ,33.2460697,-97.1605525,VALID
554,11XX IMPERIAL DR DENTON TX ,33.2504713,-97.1188232,VALID
555,32XX MEDPARK DR DENTON TX ,33.1831293,-97.0944578,VALID
556,SUNSET ST DENTON TX ,33.2296642,-97.1383821,VALID
557,54XX SOLEDAD DR DENTON TX ,33.1720626,-97.0768019,VALID
558,10XX VINE ST DENTON TX ,33.22341,-97.1261824,VALID
559,25XX I 35 DENTON TX ,33.2802739,-97.177933,VALID
560,6XX FORT WORTH DR DENTON TX ,33.1675471,-97.1532309,VALID
561,18XX MOHICAN AVE DENTON TX ,33.2340844,-97.109846,VALID
562,61XX ALDERBROOK LN ARGYLE TX ,33.00926,-97.2669992,VALID
563,15XX NOTTINGHAM DR DENTON TX ,33.2389117,-97.1066916,VALID
564,19XX LOCKSLEY LN DENTON TX ,33.2398045,-97.109006,VALID
565,25XX N I 35 E DENTON TX ,33.2036084,-97.1504619,VALID
566,15XX LA MIRADA DENTON TX ,33.2534129,-97.1105718,VALID
567,4XX W CONGRESS ST DENTON TX ,33.219372,-97.1407651,VALID
568,22XX N LOCUST ST DENTON TX ,33.256469,-97.1316417,VALID
569,23XX WESTVIEW TRL DENTON TX ,33.2375852,-97.1689603,VALID
570,21XX WESTVIEW TRL DENTON TX ,33.2375852,-97.1689603,VALID
571,19XX COLORADO BLVD DENTON TX ,33.1875187,-97.1026425,VALID
572,RUSSELL ST DENTON TX ,33.2144801,-97.1296976,VALID
573,FRY ST DENTON TX ,33.216643,-97.1464272,VALID
574,12XX S WOODROW LN DENTON TX ,33.2072363,-97.1120564,VALID
575,23XX COLORADO BLVD DENTON TX ,33.1875187,-97.1026425,VALID
576,29XX COUNTRY CLUB RD DENTON TX ,33.1621985,-97.1419084,VALID
577,41XX E UNIVERSITY DR DENTON TX ,33.2345383,-97.0783176,VALID
578,14XX AUBURN DR DENTON TX ,33.2362297,-97.1506483,VALID
579,23XX LOOKOUT LN DENTON TX ,33.2381831,-97.1671815,VALID
580,4XX W SHERMAN DR DENTON TX ,33.2321132,-97.1346471,VALID
581,2XX ACME ST DENTON TX ,33.1947949,-97.1395737,VALID
582,45XX DOGWOOD DR DENTON TX ,33.1687518,-97.0723926,VALID
583,11XX HEARTH DR DENTON TX ,33.2384185,-97.1460158,VALID
584,39XX MONTECITO RD DENTON TX ,33.1606932,-97.1198416,VALID
585,43XX HAYES ST DENTON TX ,33.2594073,-97.1206253,VALID
586,2XX MATTHEW AVE DENTON TX ,33.157428,-97.1290188,VALID
587,STUART RD DENTON TX ,33.253604,-97.1221225,VALID
588,14XX ANGELINA BEND DR DENTON TX ,33.1955172,-97.1144685,VALID
589,20XX MARK TWAIN LN DENTON TX ,33.1478194,-97.111998,VALID
590,35XX COOPER BRANCH WEST DENTON TX ,33.2477432,-97.0997896,VALID
591,53XX I 35 DENTON TX ,33.2802739,-97.177933,VALID
592,7XX W SYCAMORE ST DENTON TX ,33.2126151,-97.1438642,VALID
593,6XX TEXAS ST DENTON TX ,33.2222473,-97.123652,VALID
594,20XX MISTYWOOD LN DENTON TX ,33.2371598,-97.1060725,VALID
595,29XX LONESOME TRL DENTON TX ,33.1524114,-97.1036136,VALID
596,3XX N CRAWFORD ST DENTON TX ,33.2179936,-97.120214,VALID
597,1XX BELLAIRE DR DENTON TX ,33.2168056,-97.0988144,VALID
598,70XX CRENSHAW LN DENTON TX ,33.1469968,-97.0965909,VALID
599,20XX W WINDSOR DR DENTON TX ,33.2402202,-97.1526306,VALID
600,14XX W UNIVERSITY DR DENTON TX ,33.2303119,-97.1816464,VALID
601,51XX E UNIVERSITY DR DENTON TX ,33.2345383,-97.0783176,VALID
602,13XX PACO TRL DENTON TX ,33.2220273,-97.1161179,VALID
603,7XX HILL ALLEY ST DENTON TX ,33.2076422,-97.1252109,VALID
604,5XX E HOBSON LN DENTON TX ,33.1760298,-97.1317986,VALID
605,65XX ALDERBROOK DR DENTON TX ,33.148481,-97.0955017,VALID
606,48XX N MASCH BRANCH RD DENTON TX ,33.2304372,-97.1972384,VALID
607,3XX CARDINAL DR DENTON TX ,33.2188503,-97.09203,VALID
608,17XX OAK TREE DR DENTON TX ,33.2234224,-97.11081,VALID
609,17XX AUDRA LN DENTON TX ,33.2246081,-97.1068564,VALID
610,15XX MAY ST DENTON TX ,33.2213474,-97.1154391,VALID
611,22XX COLORADO BLVD DENTON TX ,33.1875187,-97.1026425,VALID
612,23XX TAHOE LN DENTON TX ,33.1773195,-97.1075685,VALID
613,7XX CORONADO DR DENTON TX ,33.2394263,-97.1271636,VALID
614,79XX HIDDEN PATH LN DENTON TX ,33.1437801,-97.1157023,VALID
615,11XX PALMWOOD PL DENTON TX ,33.23373,-97.1174,VALID
616,19XX MALONE ST DENTON TX ,33.2281522,-97.1497076,VALID
617,14XX TROY H LAGRONE DR DENTON TX ,33.2125846,-97.1142222,VALID
618,22XX KINGSTON TRCE DENTON TX ,33.2478707,-97.1028217,VALID
619,10XX OAKLAND ST DENTON TX ,33.2209425,-97.1299558,VALID
620,1XX FRY ST DENTON TX ,33.216643,-97.1464272,VALID
621,4XX E UNIVERSITY DR DENTON TX ,33.2345383,-97.0783176,VALID
622,52XX GAELIC CT DENTON TX ,33.2070096,-97.0761424,VALID
623,45XX BAYTREE AVE DENTON TX ,33.1689379,-97.0694028,VALID
624,6XX W COLLINS ST DENTON TX ,33.2041237,-97.1393456,VALID
625,32XX TOWN CENTER TRL DENTON TX ,33.2287035,-97.1694331,VALID
626,1XX N LOCUST ST DENTON TX ,33.256469,-97.1316417,VALID
627,9XX TALLAHASSEE DR DENTON TX ,33.2264717,-97.086253,VALID
628,5XX S LOCUST ST DENTON TX ,33.2025721,-97.1335834,VALID
629,7XX WOODLAND ST DENTON TX ,33.2320287,-97.1263603,VALID
630,TIMBERGREEN CIR DENTON TX ,33.1724816,-97.1310693,VALID
631,22XX PARKSIDE DR DENTON TX ,33.2363008,-97.1533791,VALID
632,7XX PENNSYLVANIA DR DENTON TX ,33.1826901,-97.1178826,VALID
633,17XX RINEY RD DENTON TX ,33.2490831,-97.1517612,VALID
634,26XX N LOCUST ST DENTON TX ,33.256469,-97.1316417,VALID
635,9XX N CARROLL BLVD DENTON TX ,33.2279879,-97.1368644,VALID
636,9XX ABBOTS LN DENTON TX ,33.1765347,-97.1210227,VALID
637,9XX LONDONDERRY LN DENTON TX ,33.1899152,-97.1257002,VALID
638,20XX GEORGETOWN DR DENTON TX ,33.2344678,-97.1513962,VALID
639,20XX N LOCUST ST DENTON TX ,33.256469,-97.1316417,VALID
640,37XX ALLISON DR DENTON TX ,33.2546552,-97.1451681,VALID
641,50XX PAR DR DENTON TX ,33.1792841,-97.0765968,VALID
642,20XX WOODBROOK ST DENTON TX ,33.186853,-97.1205599,VALID
643,22XX N ELM ST DENTON TX ,33.2483035,-97.1480169,VALID
644,2XX MOUNTS AVE DENTON TX ,33.2175142,-97.1403887,VALID
645,20XX LESLIE ST DENTON TX ,33.1934496,-97.1429921,VALID
646,23XX N LOCUST ST DENTON TX ,33.256469,-97.1316417,VALID
647,77XX MOSSPOINT CT DENTON TX ,33.1463847,-97.1120143,VALID
648,25XX CHARLOTTE ST DENTON TX ,33.2128177,-97.1597782,VALID
649,14XX MALONE ST DENTON TX ,33.2281522,-97.1497076,VALID
650,10XX LYNHURST LN DENTON TX ,33.1807543,-97.1172597,VALID
651,20XX CRESTMEADOW ST DENTON TX ,33.2375765,-97.1681007,VALID
652,21XX WOODBROOK ST DENTON TX ,33.186853,-97.1205599,VALID
653,6XX PENNSYLVANIA DR DENTON TX ,33.1826901,-97.1178826,VALID
654,14XX PANHANDLE ST DENTON TX ,33.2216193,-97.1526645,VALID
655,9XX LYNHURST LN DENTON TX ,33.1807543,-97.1172597,VALID
656,8XX BLUEBONNET PL DENTON TX ,33.2438181,-97.1214528,VALID
657,32XX AIRPORT RD DENTON TX ,33.2016344,-97.178521,VALID
658,3XX E EL PASEO ST DENTON TX ,33.1681658,-97.1268846,VALID
659,13XX WILSON ST DENTON TX ,33.2081469,-97.1208293,VALID
660,13XX KENDOLPH DR DENTON TX ,33.1998148,-97.1520057,VALID
661,12XX KENDOLPH DR DENTON TX ,33.1998148,-97.1520057,VALID
662,14XX KENDOLPH DR DENTON TX ,33.1998148,-97.1520057,VALID
663,17XX HIGHLAND PARK RD DENTON TX ,33.1971195,-97.1548181,VALID
664,18XX KENDOLPH DR DENTON TX ,33.1998148,-97.1520057,VALID
665,14XX SAN GABRIEL DR DENTON TX ,33.1940517,-97.1150861,VALID
666,19XX SPENCER RD DENTON TX ,33.1959056,-97.0987982,VALID
667,5XX W COLLINS ST DENTON TX ,33.2041237,-97.1393456,VALID
668,12XX CRESCENT ST DENTON TX ,33.2257629,-97.1497812,VALID
669,8XX SKYLARK DR DENTON TX ,33.1799039,-97.1208419,VALID
670,31XX PINEHURST CT DENTON TX ,33.1702284,-97.1425396,VALID
671,32XX E UNIVERSITY DR DENTON TX ,33.2345383,-97.0783176,VALID
672,17XX W UNIVERSITY DR DENTON TX ,33.2303119,-97.1816464,VALID
673,1XX DENTON ST DENTON TX ,33.2197983,-97.1390881,VALID
674,17XX WILLOWWOOD ST DENTON TX ,33.1963499,-97.15154,VALID
675,1XX E WINDSOR DR DENTON TX ,33.2439517,-97.1120302,VALID
676,41XX DARIEN PL DENTON TX ,33.1560771,-97.1091038,VALID
677,1XX HERITAGE LN DENTON TX ,33.2379975,-97.1304813,VALID
678,25XX ROBINWOOD LN DENTON TX ,33.2376615,-97.1177146,VALID
679,36XX E MCKINNEY ST DENTON TX ,33.2115705,-97.0875966,VALID
680,87XX SEVEN OAKS LN DENTON TX ,33.1416371,-97.1183191,VALID
681,20XX SPINNAKER DR DENTON TX ,33.1685154,-97.1149344,VALID
682,6XX W PARKWAY ST DENTON TX ,33.2180686,-97.1358893,VALID
683,6XX PERSHING DR DENTON TX ,33.25721,-97.1235399,VALID
684,2XX WELLINGTON OAKS PL DENTON TX ,33.1651706,-97.1296686,VALID
685,14XX S AVE C DENTON TX ,33.207115,-97.1508123,VALID
686,23XX MERCEDES RD DENTON TX ,33.1932688,-97.1449557,VALID
687,22XX JACQUELINE DR DENTON TX ,33.1932487,-97.1440092,VALID
688,61XX MOOR HEN DR DENTON TX ,33.1704265,-97.0752275,VALID
689,56XX Bryant Irvin Rd FT WORTH TX ,32.6714416,-97.4192908,VALID
690,76XX SUNBURST TRL DENTON TX ,33.1507568,-97.1264985,VALID
691,5XX N LOOP 288 DENTON TX ,33.2584052,-97.1428634,VALID
692,3XX AUDRA LN DENTON TX ,33.2246081,-97.1068564,VALID
693,17XX POST OAK CT DENTON TX ,33.2241791,-97.1119486,VALID
694,19XX BRINKER RD DENTON TX ,33.1883701,-97.095871,VALID
695,18XX BRINKER RD DENTON TX ,33.1883701,-97.095871,VALID
696,11XX COLLIER ST DENTON TX ,33.2051132,-97.1494709,VALID
697,1XX W EL PASEO ST DENTON TX ,33.1682503,-97.1343516,VALID
698,62XX ST JAMES PL DENTON TX ,33.1525246,-97.1003187,VALID
699,61XX COUNTESS LN DENTON TX ,33.1530525,-97.0982928,VALID
700,9XX AUTUMN OAK DR DENTON TX ,33.2233484,-97.1136203,VALID
701,9XX LAGUNA DR DENTON TX ,33.2487756,-97.1193322,VALID
702,25XX HINKLE DR DENTON TX ,33.2360943,-97.1444733,VALID
703,22XX VANDERBILT CT DENTON TX ,33.2379197,-97.1503198,VALID
704,26XX HEREFORD RD DENTON TX ,33.1692332,-97.1040616,VALID
705,28XX JOSHUA ST DENTON TX ,33.2175454,-97.0997246,VALID
706,28XX AIRPORT FWY BEDFORD TX ,32.8373476,-97.1333455,VALID
707,SCRIPTURE ST DENTON TX ,33.2188813,-97.1575335,VALID
708,10XX KEYSTONE CT DENTON TX ,33.2684187,-97.1230026,VALID
709,14XX N LOCUST ST DENTON TX ,33.256469,-97.1316417,VALID
710,19XX WESTWOOD DR DENTON TX ,33.1941786,-97.1458733,VALID
711,14XX SOMBRA VISTA DR DENTON TX ,33.2005838,-97.127584,VALID
712,7XX THOMAS ST DENTON TX ,33.2220385,-97.1586753,VALID
713,31XX BROKEN ARROW RD DENTON TX ,33.2446218,-97.1034934,VALID
714,9XX FORT WORTH DR DENTON TX ,33.1675471,-97.1532309,VALID
715,5XX W OAK ST DENTON TX ,33.2157359,-97.1545246,VALID
716,AMARILLO ST DENTON TX ,33.2192471,-97.1422904,VALID
717,17XX MISTYWOOD LN DENTON TX ,33.2371598,-97.1060725,VALID
718,17XX BROADWAY ST DENTON TX ,33.222518,-97.1483385,VALID
719,2XX WILLOW STONE ST DENTON TX ,33.2520491,-97.1296199,VALID
720,6XX S MAYHILL RD DENTON TX ,33.1922091,-97.0856294,VALID
721,7XX KINGS ROW DENTON TX ,33.2490386,-97.1062357,VALID
722,72XX LIVINGSTON DR DENTON TX ,33.1488566,-97.1107664,VALID
723,20XX MALONE ST DENTON TX ,33.2281522,-97.1497076,VALID
724,WESTWAY ST DENTON TX ,33.2286784,-97.139311,VALID
725,1XX S CRAWFORD ST DENTON TX ,33.2130244,-97.1197304,VALID
726,3XX W EAGLE DR DENTON TX ,33.206632,-97.14474,VALID
727,14XX EUFEMIA DR DENTON TX ,33.2508317,-97.1440301,VALID
728,2XX BERNARD ST DENTON TX ,33.2010666,-97.1416274,VALID
729,31XX S I 35 E DENTON TX ,33.1814754,-97.102065,VALID
730,6XX MYRTLE ST DENTON TX ,33.2050727,-97.1350973,VALID
731,7XX EMERY ST DENTON TX ,33.2283873,-97.1497,VALID
732,14XX E UNIVERSITY DR DENTON TX ,33.2345383,-97.0783176,VALID
733,20XX WINDSOR FARMS DR DENTON TX ,33.2385452,-97.1725529,VALID
734,N CEDAR ST DENTON TX ,33.2155738,-97.134318,VALID
735,18XX WESTMINSTER ST DENTON TX ,33.19092,-97.1217059,VALID
736,13XX TEASLEY LN DENTON TX ,33.1678163,-97.1103429,VALID
737,36XX SUNNYDALE LN DENTON TX ,33.2518515,-97.12275,VALID
738,11XX AILEEN ST DENTON TX ,33.2242761,-97.1533362,VALID
739,11XX PIN OAK DR DENTON TX ,33.224362,-97.1127853,VALID
740,EGAN ST DENTON TX ,33.2203978,-97.1422526,VALID
741,7XX PARK LN DENTON TX ,33.2045652,-97.1265278,VALID
742,33XX HUDSONWOOD DR DENTON TX ,33.1846608,-97.0928243,VALID
743,3XX S CRAWFORD ST DENTON TX ,33.2130244,-97.1197304,VALID
744,5XX ALEGRE VISTA DR DENTON TX ,33.2000181,-97.1266125,VALID
745,3XX W HICKORY ST DENTON TX ,33.2146565,-97.1475676,VALID
746,1XX S AVE G DENTON TX ,33.2122342,-97.1579955,VALID
747,9XX OAKLAND ST DENTON TX ,33.2209425,-97.1299558,VALID
748,5XX BRYAN ST DENTON TX ,33.2207835,-97.1475497,VALID
749,17XX SHADY OAKS DR DENTON TX ,33.2008585,-97.1064494,VALID
750,8XX LAGUNA DR DENTON TX ,33.2487756,-97.1193322,VALID
751,25XX FORT WORTH DR DENTON TX ,33.1675471,-97.1532309,VALID
752,24XX KARIBA LN DENTON TX ,33.1764045,-97.106458,VALID
753,63XX BARBERRY AVE DENTON TX ,33.1701643,-97.0686016,VALID
754,11XX CORDELL ST DENTON TX ,33.2266141,-97.1471889,VALID
755,21XX KAYEWOOD DR DENTON TX ,33.2343372,-97.118504,VALID
756,24XX KINGSTON TRCE DENTON TX ,33.2478707,-97.1028217,VALID
757,58XX BLAGG RD DENTON TX ,33.2284117,-97.0684926,VALID
758,5XX SMITH ST DENTON TX ,33.2021306,-97.1270243,VALID
759,38XX CAMELOT ST DENTON TX ,33.2547572,-97.1235202,VALID
760,15XX TEASLEY LN DENTON TX ,33.1678163,-97.1103429,VALID
761,21XX ROBINWOOD LN DENTON TX ,33.2376615,-97.1177146,VALID
762,23XX N BONNIE BRAE ST DENTON TX ,33.2460697,-97.1605525,VALID
763,23XX KINGSTON TRCE DENTON TX ,33.2478707,-97.1028217,VALID
764,23XX STELLA ST DENTON TX ,33.2137895,-97.1586493,VALID
765,35XX COOPER BRANCH EAST DENTON TX ,33.2468842,-97.098685,VALID
766,29XX STATE SCHOOL RD DENTON TX ,33.1695164,-97.0906569,VALID
767,E HICKORY ST DENTON TX ,33.2144196,-97.1253362,VALID
768,22XX ROBINWOOD LN DENTON TX ,33.2376615,-97.1177146,VALID
769,14XX E WINDSOR DR DENTON TX ,33.2439517,-97.1120302,VALID
770,12XX BROADWAY ST DENTON TX ,33.222518,-97.1483385,VALID
771,3XX CASIE CT DENTON TX ,33.2444678,-97.1366922,VALID
772,63XX W SHADY SHORES RD DENTON TX ,33.1640049,-97.0722153,VALID
773,22XX MCCORMICK ST DENTON TX ,33.1967075,-97.1474472,VALID
774,21XX W UNIVERSITY DR DENTON TX ,33.2303119,-97.1816464,VALID
775,21XX JAMES ST DENTON TX ,33.1820245,-97.141914,VALID
776,RIO RD DENTON TX ,33.1738283,-97.0723368,VALID
777,23XX ROBINWOOD LN DENTON TX ,33.2376615,-97.1177146,VALID
778,9XX N LOOP 288 DENTON TX ,33.2584052,-97.1428634,VALID
779,8XX S WOODROW LN DENTON TX ,33.2072363,-97.1120564,VALID
780,34XX HUISACHE ST DENTON TX ,33.2501979,-97.1265178,VALID
781,CRESCENT ST DENTON TX ,33.2257629,-97.1497812,VALID
782,63XX SHADY SHORES RD DENTON TX ,33.1640049,-97.0722153,VALID
783,N BELL AVE DENTON TX ,33.2310843,-97.1272288,VALID
784,21XX JACQUELINE DR DENTON TX ,33.1932487,-97.1440092,VALID
785,19XX JACQUELINE DR DENTON TX ,33.1932487,-97.1440092,VALID
786,2XX JAGOE ST DENTON TX ,33.2174969,-97.1505839,VALID
787,21XX MERCEDES RD DENTON TX ,33.1932688,-97.1449557,VALID
788,17XX EMERY ST DENTON TX ,33.2283873,-97.1497,VALID
789,11XX BISHOPS PARK ST DENTON TX ,33.1773845,-97.1185057,VALID
790,23XX WILDWOOD LN DENTON TX ,33.1588826,-97.1068598,VALID
791,28XX AIRPORT RD DENTON TX ,33.2016344,-97.178521,VALID
792,32XX WINDBROOK CT DENTON TX ,33.2496941,-97.1287341,VALID
793,E SYCAMORE ST DENTON TX ,33.2124371,-97.125394,VALID
794,36XX S I 35 E DENTON TX ,33.1814754,-97.102065,VALID
795,7XX MYRTLE ST DENTON TX ,33.2050727,-97.1350973,VALID
796,BOARDWALK LN DENTON TX ,33.2038741,-97.12626,VALID
797,11XX NEFF ST DENTON TX ,33.2027685,-97.1446823,VALID
798,4XX MIMOSA DR DENTON TX ,33.2392851,-97.139075,VALID
799,11XX W CONGRESS ST DENTON TX ,33.219372,-97.1407651,VALID
800,11XX SPRINGCREEK DR DENTON TX ,33.1672742,-97.1449504,VALID
801,14XX CARRIGAN LN DENTON TX ,33.2516161,-97.1440095,VALID
802,17XX MERCEDES RD DENTON TX ,33.1932688,-97.1449557,VALID
803,4XX FULTON ST DENTON TX ,33.2229049,-97.1433472,VALID
804,35XX MONTECITO RD DENTON TX ,33.1606932,-97.1198416,VALID
805,40XX ROXBURY ST DENTON TX ,33.1587421,-97.111457,VALID
806,W EAGLE DR DENTON TX ,33.206632,-97.14474,VALID
807,1XX HOLLYHILL LN DENTON TX ,33.1882245,-97.1148274,VALID
808,3XX W MCKINNEY ST DENTON TX ,33.2169694,-97.1348793,VALID
809,28XX HEREFORD RD DENTON TX ,33.1692332,-97.1040616,VALID
810,10XX E SYCAMORE ST DENTON TX ,33.2124371,-97.125394,VALID
811,35XX HUISACHE ST DENTON TX ,33.2501979,-97.1265178,VALID
812,17XX SCRIPTURE ST DENTON TX ,33.2188813,-97.1575335,VALID
813,4XX BRYAN ST DENTON TX ,33.2207835,-97.1475497,VALID
814,BOLIVAR ST DENTON TX ,33.2283073,-97.1348068,VALID
815,7XX SUNSET ST DENTON TX ,33.2296642,-97.1383821,VALID
816,32XX CAMINO REAL TRL DENTON TX ,33.1747817,-97.0767076,VALID
817,4XX N BRADSHAW ST DENTON TX ,33.2174708,-97.1214186,VALID
818,4XX W PRAIRIE ST DENTON TX ,33.2108511,-97.1550899,VALID
819,8XX ANDERSON ST DENTON TX ,33.2179648,-97.1412299,VALID
820,11XX TEASLEY LN DENTON TX ,33.1678163,-97.1103429,VALID
821,4XX W HIGHLAND ST DENTON TX ,33.2093173,-97.1443753,VALID
822,3XX EVERS WAY DENTON TX ,33.2528474,-97.1340111,VALID
823,3XX E WINDSOR DR DENTON TX ,33.2439517,-97.1120302,VALID
824,24XX W OAK ST DENTON TX ,33.2157359,-97.1545246,VALID
825,13XX LINDSEY ST DENTON TX ,33.1987727,-97.1450131,VALID
826,42XX MESA DR DENTON TX ,33.2330179,-97.1769434,VALID
827,MYRTLE ST DENTON TX ,33.2050727,-97.1350973,VALID
828,N CARROLL BLVD DENTON TX ,33.2279879,-97.1368644,VALID
829,53XX ABBY WAY DENTON TX ,33.20407,-97.0756936,VALID
830,25XX STELLA ST DENTON TX ,33.2137895,-97.1586493,VALID
831,4XX E HICKORY ST DENTON TX ,33.2144196,-97.1253362,VALID
832,7XX COOK ST DENTON TX ,33.2064939,-97.1296122,VALID
833,2XX E HICKORY ST DENTON TX ,33.2144196,-97.1253362,VALID
834,8XX LONDONDERRY LN DENTON TX ,33.1899152,-97.1257002,VALID
835,21XX CHERRYWOOD LN DENTON TX ,33.2339297,-97.1219013,VALID
836,W COLLINS ST DENTON TX ,33.2041237,-97.1393456,VALID
837,13XX NORMAN ST DENTON TX ,33.2029627,-97.1435946,VALID
838,COFFEY DR DENTON TX ,33.241932,-97.1675839,VALID
839,2XX W RYAN RD DENTON TX ,33.1615388,-97.1350524,VALID
840,11XX SHADY OAKS DR DENTON TX ,33.2008585,-97.1064494,VALID
841,24XX W UNIVERSITY DR DENTON TX ,33.2303119,-97.1816464,VALID
842,20XX LAMPREY CIR DENTON TX ,33.1753969,-97.1107803,VALID
843,4XX E SHERMAN DR DENTON TX ,33.276093,-97.0962546,VALID
844,43XX I 35 DENTON TX ,33.2802739,-97.177933,VALID
845,8XX S ELM ST DENTON TX ,33.2101561,-97.1337726,VALID
846,22XX FOWLER DR DENTON TX ,33.2355071,-97.129852,VALID
847,20XX AZALEA ST DENTON TX ,33.1924699,-97.1571325,VALID
848,39XX S I 35 E DENTON TX ,33.1814754,-97.102065,VALID
849,23XX PARKSIDE DR DENTON TX ,33.2363008,-97.1533791,VALID
850,15XX LONG RD DENTON TX ,33.2635351,-97.1166163,VALID
851,6XX N LOOP 288 DENTON TX ,33.2584052,-97.1428634,VALID
852,8XX SUNSET ST DENTON TX ,33.2296642,-97.1383821,VALID
853,E SHERMAN DR DENTON TX ,33.276093,-97.0962546,VALID
854,2XX EVERS WAY DENTON TX ,33.2528474,-97.1340111,VALID
855,3XX CORONADO DR DENTON TX ,33.2394263,-97.1271636,VALID
856,VINTAGE BLVD DENTON TX ,33.1701268,-97.168938,VALID
857,7XX LAKEY ST DENTON TX ,33.2082911,-97.1241868,VALID
858,14XX I 35 W DENTON TX ,33.1648139,-97.1855749,VALID
859,21XX MCCORMICK ST DENTON TX ,33.1967075,-97.1474472,VALID
860,8XX N BELL AVE DENTON TX ,33.2310843,-97.1272288,VALID
861,1XX N LOOP 288 DENTON TX ,33.2584052,-97.1428634,VALID
862,81XX MONTECITO DR DENTON TX ,33.1606932,-97.1198416,VALID
863,11XX W HICKORY ST DENTON TX ,33.2146565,-97.1475676,VALID
864,6XX E SHERMAN DR DENTON TX ,33.276093,-97.0962546,VALID
865,15XX BROADWAY ST DENTON TX ,33.222518,-97.1483385,VALID
866,XX HIGHVIEW CIR DENTON TX ,33.175364,-97.131045,VALID
867,19XX CORDELL ST DENTON TX ,33.2266141,-97.1471889,VALID
868,22XX PEMBROOKE PL DENTON TX ,33.1845884,-97.1215578,VALID
869,70XX EDWARDS RD DENTON TX ,33.1780772,-97.0726157,VALID
870,S BONNIE BRAE ST DENTON TX ,33.1837027,-97.1641773,VALID
871,9XX GREENLEE ST DENTON TX ,33.2018406,-97.1462016,VALID
872,27XX BROOKFIELD LN DENTON TX ,33.2398117,-97.1133677,VALID
873,9XX W HICKORY ST DENTON TX ,33.2146565,-97.1475676,VALID
874,1XX S WOOD ST DENTON TX ,33.2129609,-97.1185275,VALID
875,99XX I 35 W DENTON TX ,33.1648139,-97.1855749,VALID
876,2XX W UNIVERSITY DR DENTON TX ,33.2303119,-97.1816464,VALID
877,25XX BRINKER RD DENTON TX ,33.1883701,-97.095871,VALID
878,19XX MERCEDES RD DENTON TX ,33.1932688,-97.1449557,VALID
879,76XX SHOAL BND DENTON TX ,33.1452221,-97.11118,VALID
880,24XX GREAT BEAR LN DENTON TX ,33.1787066,-97.1083438,VALID
881,35XX BRIERCLIFF DR DENTON TX ,33.1726111,-97.0930116,VALID
882,13XX CORDELL ST DENTON TX ,33.2266141,-97.1471889,VALID
883,19XX JASMINE ST DENTON TX ,33.1925599,-97.1590356,VALID
884,3XX N LOOP 288 DENTON TX ,33.2584052,-97.1428634,VALID
885,20XX CAMELLIA ST DENTON TX ,33.1923099,-97.1580815,VALID
886,6XX SUNSET ST DENTON TX ,33.2296642,-97.1383821,VALID
887,3XX WITHERS ST DENTON TX ,33.2211301,-97.1277038,VALID
888,24XX MCCORMICK ST DENTON TX ,33.1967075,-97.1474472,VALID
889,14XX MOSSCREEK DR DENTON TX ,33.1704186,-97.148078,VALID
890,7XX E MCKINNEY ST DENTON TX ,33.2115705,-97.0875966,VALID
891,41XX FANITA PL DENTON TX ,33.1572757,-97.1128767,VALID
892,14XX MARGIE ST DENTON TX ,33.2047274,-97.1473444,VALID
893,33XX CLYDESDALE DR DENTON TX ,33.1576232,-97.0979517,VALID
894,3XX N LOCUST ST DENTON TX ,33.256469,-97.1316417,VALID
895,31XX LIPIZZAN DR DENTON TX ,33.1516303,-97.1017658,VALID
896,21XX OAK TREE DR DENTON TX ,33.2234224,-97.11081,VALID
897,9XX MACK PL DENTON TX ,33.2228729,-97.1077003,VALID
898,1XX S BONNIE BRAE ST DENTON TX ,33.1837027,-97.1641773,VALID
899,34XX QUAIL CREEK DR DENTON TX ,33.1860396,-97.0939245,VALID
900,11XX FULTON ST DENTON TX ,33.2229049,-97.1433472,VALID
901,31XX INGLEWOOD ST DENTON TX ,33.2441893,-97.1285929,VALID
902,31XX CEDAR HILL ST DENTON TX ,33.2445787,-97.1276329,VALID
903,94XX E SHERMAN DR DENTON TX ,33.276093,-97.0962546,VALID
904,28XX COUNTRY CLUB RD DENTON TX ,33.1621985,-97.1419084,VALID
905,4XX W HICKORY ST DENTON TX ,33.2146565,-97.1475676,VALID
906,20XX DOECREST DR DENTON TX ,33.1463847,-97.1120143,VALID
907,11XX VISTA VERDE ST DENTON TX ,33.1485336,-97.1192045,VALID
908,5XX N CARROLL BLVD DENTON TX ,33.2279879,-97.1368644,VALID
909,E UNIVERSITY DR DENTON TX ,33.2345383,-97.0783176,VALID
910,21XX WINTHROP HILL RD DENTON TX ,33.1585859,-97.1554732,VALID
911,19XX WISTERIA ST DENTON TX ,33.1944685,-97.1561115,VALID
912,31XX ARMSTRONG ST DENTON TX ,33.2428183,-97.0954774,VALID
913,22XX WINDHAVEN DR DENTON TX ,33.1441532,-97.1079133,VALID
914,1XX E PRAIRIE ST DENTON TX ,33.2105793,-97.1259592,VALID
915,10XX THOMAS ST DENTON TX ,33.2220385,-97.1586753,VALID
916,9XX KERLEY ST DENTON TX ,33.2031783,-97.1193746,VALID
917,38XX HARVEST GLEN DR DENTON TX ,33.2515599,-97.104961,VALID
918,33XX NOTTINGHAM DR DENTON TX ,33.2389117,-97.1066916,VALID
919,7XX DALLAS DR DENTON TX ,33.1993677,-97.1242105,VALID
920,16XX DALLAS DR DENTON TX ,33.1993677,-97.1242105,VALID
921,24XX ACORN BND DENTON TX ,33.142626,-97.1087981,VALID
922,57XX THOROUGHBRED TRL DENTON TX ,33.1538329,-97.096408,VALID
923,13XX MYRTLE ST DENTON TX ,33.2050727,-97.1350973,VALID
924,6XX W CONGRESS ST DENTON TX ,33.219372,-97.1407651,VALID
925,47XX LOIRE CT DENTON TX ,33.1716411,-97.1757262,VALID
926,8XX IOOF ST DENTON TX ,33.2088246,-97.1402446,VALID
927,15XX MISTYWOOD LN DENTON TX ,33.2371598,-97.1060725,VALID
928,14XX E MCKINNEY ST DENTON TX ,33.2115705,-97.0875966,VALID
929,COOPER CREEK RD DENTON TX ,33.2430055,-97.0817486,VALID
930,1XX MILL POND RD DENTON TX ,33.2407783,-97.0976352,VALID
931,15XX WAYNE ST DENTON TX ,33.2263648,-97.1126765,VALID
932,24XX ROBIN CIR DENTON TX ,33.2364377,-97.1070871,VALID
933,WESTWOOD DR DENTON TX ,33.1941786,-97.1458733,VALID
934,18XX HINKLE DR DENTON TX ,33.2360943,-97.1444733,VALID
935,79XX SWAN PARK DR DENTON TX ,33.1421911,-97.1139245,VALID
936,75XX RIVERCHASE TRL DENTON TX ,33.1527211,-97.1246769,VALID
937,11XX PALO VERDE DR DENTON TX ,33.1503336,-97.1175556,VALID
938,17XX PALO VERDE DR DENTON TX ,33.1503336,-97.1175556,VALID
939,17XX BOYD ST DENTON TX ,33.2296394,-97.1127991,VALID
940,33XX WIND RIVER LN DENTON TX ,33.1768723,-97.1039668,VALID
941,21XX FAIRMOUNT PARK DR DENTON TX ,33.1516868,-97.1099244,VALID
942,7XX EL CIELITO ST DENTON TX ,33.1697665,-97.120668,VALID
943,14XX E SHERMAN DR DENTON TX ,33.276093,-97.0962546,VALID
944,23XX N MASCH BRANCH RD DENTON TX ,33.2304372,-97.1972384,VALID
945,24XX LESLIE ST DENTON TX ,33.1934496,-97.1429921,VALID
946,6XX BOARDWALK LN DENTON TX ,33.2038741,-97.12626,VALID
947,37XX E MCKINNEY ST DENTON TX ,33.2115705,-97.0875966,VALID
948,16XX COOPER CREEK RD DENTON TX ,33.2430055,-97.0817486,VALID
949,28XX COLORADO BLVD DENTON TX ,33.1875187,-97.1026425,VALID
950,13XX E SHERMAN DR DENTON TX ,33.276093,-97.0962546,VALID
951,3XX W SHERMAN DR DENTON TX ,33.2321132,-97.1346471,VALID
952,10XX FORT WORTH DR DENTON TX ,33.1675471,-97.1532309,VALID
953,3XX W OAK ST DENTON TX ,33.2157359,-97.1545246,VALID
954,6XX WAINWRIGHT ST DENTON TX ,33.2098783,-97.131359,VALID
955,15XX OAKWOOD DR DENTON TX ,33.1975666,-97.1468746,VALID
956,8XX W HICKORY ST DENTON TX ,33.2146565,-97.1475676,VALID
957,33XX ANYSA LN DENTON TX ,33.2264223,-97.0971391,VALID
958,15XX KNIGHT ST DENTON TX ,33.2005887,-97.1497002,VALID
959,9XX BRITTANY DR DENTON TX ,33.2265079,-97.0948052,VALID
960,6XX WOLFTRAP DR DENTON TX ,33.2460767,-97.1237708,VALID
961,4XX S ELM ST DENTON TX ,33.2101561,-97.1337726,VALID
962,18XX MISTYWOOD LN DENTON TX ,33.2371598,-97.1060725,VALID
963,10XX W CONGRESS ST DENTON TX ,33.219372,-97.1407651,VALID
964,15XX BERNARD ST DENTON TX ,33.2010666,-97.1416274,VALID
965,33XX UNICORN LAKE BLVD DENTON TX ,33.1716801,-97.0957739,VALID
966,S ELM ST DENTON TX ,33.2101561,-97.1337726,VALID
967,N RUDDELL ST DENTON TX ,33.222033,-97.1178217,VALID
968,38XX ARROYO TRL DENTON TX ,33.1727335,-97.0724026,VALID
969,1XX S LOOP 288 DENTON TX ,33.1970392,-97.0919826,VALID
970,45XX SHY CREEK LN DENTON TX ,33.262117,-97.1261137,VALID
971,15XX ANNA ST DENTON TX ,33.2257569,-97.1361846,VALID
972,55XX SONGBIRD TRL DENTON TX ,33.2673445,-97.1233487,VALID
973,22XX REDWOOD PL DENTON TX ,33.2324808,-97.1118331,VALID
974,85XX W UNIVERSITY DR DENTON TX ,33.2303119,-97.1816464,VALID
975,29XX SADDLE DR DENTON TX ,33.1482677,-97.1033731,VALID
976,10XX MACK PL DENTON TX ,33.2228729,-97.1077003,VALID
977,5XX RUTH ST DENTON TX ,33.2053807,-97.1274001,VALID
978,34XX SUNDOWN BLVD DENTON TX ,33.172871,-97.1111172,VALID
979,20XX METRO ST DENTON TX ,33.195254,-97.1704273,VALID
980,8XX CRESCENT ST DENTON TX ,33.2257629,-97.1497812,VALID
981,46XX MERLOT DR DENTON TX ,33.1724097,-97.1685727,VALID
982,7XX CORDELL ST DENTON TX ,33.2266141,-97.1471889,VALID
983,AVE A DENTON TX ,33.2083388,-97.1462368,VALID
984,8XX N LOCUST ST DENTON TX ,33.256469,-97.1316417,VALID
985,11XX WILSON ST DENTON TX ,33.2081469,-97.1208293,VALID
986,21XX W HICKORY ST DENTON TX ,33.2146565,-97.1475676,VALID
987,18XX MERCEDES RD DENTON TX ,33.1932688,-97.1449557,VALID
988,25XX FALL LEAF CT DENTON TX ,33.2211846,-97.1032524,VALID
989,22XX SPENCER RD DENTON TX ,33.1959056,-97.0987982,VALID
990,S AVE G DENTON TX ,33.2122342,-97.1579955,VALID
991,N AUSTIN ST DENTON TX ,33.2208521,-97.1311235,VALID
992,14XX UNDERWOOD ST DENTON TX ,33.203434,-97.1490791,VALID
993,18XX N ELM ST DENTON TX ,33.2483035,-97.1480169,VALID
994,7XX S CARROLL BLVD DENTON TX ,33.2093664,-97.137149,VALID
995,24XX S I 35 E HWY DENTON TX ,33.1814754,-97.102065,VALID
996,75XX STALLION ST DENTON TX ,33.219249,-97.0533518,VALID
997,21XX DOUBLEOAK ST DENTON TX ,33.2191597,-97.1048666,VALID
998,36XX DORIS DR DENTON TX ,33.252039,-97.1363638,VALID
999,95XX LINDENWOOD TRL DENTON TX ,33.1354916,-97.2314722,VALID
1000,50XX E UNIVERSITY DR DENTON TX ,33.2345383,-97.0783176,VALID
1001,24XX LOUISE ST DENTON TX ,33.211833,-97.1598019,VALID
1002,24XX I 35 W HWY DENTON TX ,33.1648139,-97.1855749,VALID
1003,EMERSON LN DENTON TX ,33.2418,-97.1048034,VALID
1004,7XX PAISLEY ST DENTON TX ,33.2207581,-97.1094508,VALID
1005,19XX LARIAT RD DENTON TX ,33.2357069,-97.1906173,VALID
1006,3XX AMARILLO ST DENTON TX ,33.2192471,-97.1422904,VALID
1007,36XX BARRYDALE DR DENTON TX ,33.1776823,-97.0564486,VALID
1008,16XX SCRIPTURE ST DENTON TX ,33.2188813,-97.1575335,VALID
1009,12XX N AUSTIN ST DENTON TX ,33.2208521,-97.1311235,VALID
1010,37XX LAKE COUNTRY DR DENTON TX ,33.1689679,-97.1102257,VALID
1011,32XX MASTHEAD DR DENTON TX ,33.1694087,-97.1169779,VALID
1012,39XX WATERFORD WAY DENTON TX ,33.1654878,-97.0883441,VALID
1013,1XX N ELM ST DENTON TX ,33.2483035,-97.1480169,VALID
1014,36XX MARIANNE CIR DENTON TX ,33.2490445,-97.1060811,VALID
1015,N WELCH ST DENTON TX ,33.2151704,-97.1442418,VALID
1016,33XX HIGHPOINT DR DENTON TX ,33.1498874,-97.0989752,VALID
1017,11XX DAVIS ST DENTON TX ,33.2179748,-97.1185504,VALID
1018,10XX W HICKORY ST DENTON TX ,33.2146565,-97.1475676,VALID
1019,27XX EMERSON LN DENTON TX ,33.2418,-97.1048034,VALID
1020,10XX CLEVELAND ST DENTON TX ,33.2041349,-97.1379203,VALID
1021,12XX TULANE DR DENTON TX ,33.2333818,-97.1481085,VALID
1022,2XX W WINDSOR DR DENTON TX ,33.2402202,-97.1526306,VALID
1023,37XX SPRINGFIELD ST DENTON TX ,33.2253979,-97.0863357,VALID
1024,11XX BERNARD ST DENTON TX ,33.2010666,-97.1416274,VALID
1025,12XX GREENBRIAR ST DENTON TX ,33.2342213,-97.1463673,VALID
1026,21XX CAMELLIA ST DENTON TX ,33.1923099,-97.1580815,VALID
1027,12XX FORT WORTH DR DENTON TX ,33.1675471,-97.1532309,VALID
1028,6XX N BELL AVE DENTON TX ,33.2310843,-97.1272288,VALID
1029,37XX I 35 DENTON TX ,33.2802739,-97.177933,VALID
1030,34XX E UNIVERSITY DR DENTON TX ,33.2345383,-97.0783176,VALID
1031,S I 35 E HWY DENTON TX ,33.1814754,-97.102065,VALID
1032,37XX S I 35 E DENTON TX ,33.1814754,-97.102065,VALID
1033,24XX KAYEWOOD DR DENTON TX ,33.2343372,-97.118504,VALID
1034,38XX S I 35 E HWY DENTON TX ,33.1814754,-97.102065,VALID
1035,60XX ENGLISH SADDLE LN DENTON TX ,33.1524257,-97.1027552,VALID
1036,16XX MARBLE COVE LN DENTON TX ,33.1463444,-97.1163882,VALID
1037,69XX HAYLING WAY DENTON TX ,33.1487251,-97.096574,VALID
1038,31XX SPENROCK CT DENTON TX ,33.1707191,-97.1435172,VALID
1039,32XX N ELM ST DENTON TX ,33.2483035,-97.1480169,VALID
1040,35XX HUDSONWOOD DR DENTON TX ,33.1846608,-97.0928243,VALID
1041,10XX BULL RUN ST DENTON TX ,33.2220249,-97.1066981,VALID
1042,34XX NOTTINGHAM DR DENTON TX ,33.2389117,-97.1066916,VALID
1043,LYNHURST LN DENTON TX ,33.1807543,-97.1172597,VALID
1044,24XX OAKRIDGE DR DENTON TX ,33.2381399,-97.119943,VALID
1045,14XX N ELM ST DENTON TX ,33.2483035,-97.1480169,VALID
1046,23XX PARVIN ST DENTON TX ,33.1910354,-97.1518136,VALID
1047,25XX MESQUITE ST DENTON TX ,33.2393246,-97.1407334,VALID
1048,55XX THISTLE HL DENTON TX ,33.1566129,-97.1299278,VALID
1049,1XX N WOODROW LN DENTON TX ,33.2151027,-97.1119418,VALID
1050,10XX MULKEY LN DENTON TX ,33.2215732,-97.1112194,VALID
1051,74XX CHAUCER DR DENTON TX ,33.1487281,-97.1127558,VALID
1052,12XX BAYFIELD ST DENTON TX ,33.2300635,-97.0940433,VALID
1053,13XX MANTEN BLVD DENTON TX ,33.2518017,-97.110333,VALID
1054,4XX S LOCUST ST DENTON TX ,33.2025721,-97.1335834,VALID
1055,65XX CEDARHURST CT DENTON TX ,33.1331973,-97.201078,VALID
1056,41XX SPUR TRAIL DR DENTON TX ,33.2526471,-97.1038952,VALID
1057,I 35 W HWY DENTON TX ,33.1648139,-97.1855749,VALID
1058,53XX PAULIE DR DENTON TX ,33.2048454,-97.0756327,VALID
1059,6XX FALLMEADOW CT DENTON TX ,33.2455333,-97.1411685,VALID
1060,5XX MILL ST DENTON TX ,33.2064589,-97.1280704,VALID
1061,25XX LA PALOMA DR DENTON TX ,33.2468353,-97.0974716,VALID
1062,10XX LARCH LN DENTON TX ,33.2229996,-97.1159019,VALID
1063,13XX ECTOR ST DENTON TX ,33.2242992,-97.1550157,VALID
1064,30XX ARMSTRONG ST DENTON TX ,33.2428183,-97.0954774,VALID
1065,11XX FORT WORTH DR DENTON TX ,33.1675471,-97.1532309,VALID
1066,12XX W MULBERRY ST DENTON TX ,33.2135492,-97.1427608,VALID
1067,11XX CRUISE ST DENTON TX ,33.2586071,-97.1189391,VALID
1068,9XX COLE AVE DENTON TX ,33.2034291,-97.0766302,VALID
1069,I 35 HWY DENTON TX ,33.2680024,-97.1780427,VALID
1070,4XX BRADLEY ST DENTON TX ,33.217931,-97.1539703,VALID
1071,1XX N CARROLL BLVD DENTON TX ,33.2279879,-97.1368644,VALID
1072,34XX MUSTANG DR DENTON TX ,33.1720802,-97.1081212,VALID
1073,23XX RANCH HOUSE DR DENTON TX ,33.1727717,-97.1070261,VALID
1074,35XX SUNDOWN BLVD DENTON TX ,33.172871,-97.1111172,VALID
1075,38XX LAKE COUNTRY DR DENTON TX ,33.1689679,-97.1102257,VALID
1076,55XX THISTLE WAY DENTON TX ,33.1555335,-97.1289963,VALID
1077,5XX BOARDWALK LN DENTON TX ,33.2038741,-97.12626,VALID
1078,CARMEL HILLS DR DENTON TX ,33.1744264,-97.0708023,VALID
1079,8XX CROSS TIMBER ST DENTON TX ,33.20644,-97.1274399,VALID
1080,18XX EMERY ST DENTON TX ,33.2283873,-97.1497,VALID
1081,24XX W HICKORY ST DENTON TX ,33.2146565,-97.1475676,VALID
1082,14XX CONSTANTINA DR DENTON TX ,33.2493122,-97.1433156,VALID
1083,36XX HARBOUR MIST TRL DENTON TX ,33.1732271,-97.0733725,VALID
1084,1XX BENTWOOD CT DENTON TX ,33.1673413,-97.1337632,VALID
1085,N BONNIE BRAE ST DENTON TX ,33.2460697,-97.1605525,VALID
1086,3XX CAMPBELL LN DENTON TX ,33.2181214,-97.1125522,VALID
1087,32XX SHADOW TRL DENTON TX ,33.2512409,-97.1277031,VALID
1088,24XX OLD NORTH RD DENTON TX ,33.2389126,-97.0987633,VALID
1089,19XX W UNIVERSITY DR DENTON TX ,33.2303119,-97.1816464,VALID
1090,13XX W HICKORY ST DENTON TX ,33.2146565,-97.1475676,VALID
1091,26XX BRINKER RD DENTON TX ,33.1883701,-97.095871,VALID
1092,N MAYHILL RD DENTON TX ,33.2218988,-97.0831971,VALID
1093,1XX FERGUSON ST DENTON TX ,33.2220055,-97.1329522,VALID
1094,8XX DENTON ST DENTON TX ,33.2197983,-97.1390881,VALID
1095,10XX SANTA FE ST DENTON TX ,33.1984931,-97.1185853,VALID
1096,18XX S BONNIE BRAE ST DENTON TX ,33.1837027,-97.1641773,VALID
1097,54XX WHARFSIDE PL DENTON TX ,33.1768781,-97.0729452,VALID
1098,13XX PHOENIX CT DENTON TX ,33.1981963,-97.1188445,VALID
1099,5XX N CRAWFORD ST DENTON TX ,33.2179936,-97.120214,VALID
1100,21XX MALONE ST DENTON TX ,33.2281522,-97.1497076,VALID
1101,3XX PEACH ST DENTON TX ,33.2362182,-97.1298371,VALID
1102,13XX LAREDO CT DENTON TX ,33.1982736,-97.1169615,VALID
1103,33XX LANCE LN DENTON TX ,33.2249826,-97.0961798,VALID
1104,8XX W MULBERRY ST DENTON TX ,33.2135492,-97.1427608,VALID
1105,8XX WESTWAY ST DENTON TX ,33.2286784,-97.139311,VALID
1106,37XX KIRBY DR DENTON TX ,33.165128,-97.1019493,VALID
1107,9XX N BELL AVE DENTON TX ,33.2310843,-97.1272288,VALID
1108,53XX TARTAN CIR DENTON TX ,33.2062669,-97.0755431,VALID
1109,33XX S I 35 E HWY DENTON TX ,33.1814754,-97.102065,VALID
1110,19XX WESTMINSTER CT DENTON TX ,33.19092,-97.1217059,VALID
1111,26XX PANHANDLE ST DENTON TX ,33.2216193,-97.1526645,VALID
1112,21XX SAVANNAH TRL DENTON TX ,33.1843908,-97.1225926,VALID
1113,13XX BRIDGES ST DENTON TX ,33.198112,-97.0864966,VALID
1114,7XX MIMOSA DR DENTON TX ,33.2392851,-97.139075,VALID
1115,62XX N LOOP 288 DENTON TX ,33.2584052,-97.1428634,VALID
1116,38XX I 35 HWY DENTON TX ,33.2680024,-97.1780427,VALID
1117,29XX LOVERS LN DENTON TX ,33.2497754,-97.200104,VALID
1118,9XX BAYFIELD DR DENTON TX ,33.2282981,-97.0939494,VALID
1119,32XX ANYSA LN DENTON TX ,33.2264223,-97.0971391,VALID
1120,7XX HEBRON LEWISVILLE TX ,33.0101482,-96.9584227,VALID
1121,34XX SANTA MONICA DR DENTON TX ,33.171516,-97.1279161,VALID
1122,16XX KINGS ROW DENTON TX ,33.2490386,-97.1062357,VALID
1123,23XX BIRCHBROOK CT DENTON TX ,33.1906417,-97.1150027,VALID
1124,6XX N I 35 E HWY DENTON TX ,33.2036084,-97.1504619,VALID
1125,33XX TEASBEND CT DENTON TX ,33.1705178,-97.1484474,VALID
1126,2XX HANN ST DENTON TX ,33.221583,-97.1311174,VALID
1127,N I 35 E HWY DENTON TX ,33.2036084,-97.1504619,VALID
1128,3XX SMITH ST DENTON TX ,33.2021306,-97.1270243,VALID
1129,3XX S CARROLL BLVD DENTON TX ,33.2093664,-97.137149,VALID
1130,13XX BERNARD ST DENTON TX ,33.2010666,-97.1416274,VALID
1131,11XX E MULBERRY ST DENTON TX ,33.2134607,-97.1282628,VALID
1132,45XX BLACK WALNUT ST DENTON TX ,33.1691528,-97.0676056,VALID
1133,24XX ROBINWOOD LN DENTON TX ,33.2376615,-97.1177146,VALID
1134,28XX W SHADY SHORES RD DENTON TX ,33.1640049,-97.0722153,VALID
1135,3XX THOMAS ST DENTON TX ,33.2220385,-97.1586753,VALID
1136,50XX BEAVER CREEK AVE DENTON TX ,33.263345,-97.1253722,VALID
1137,9XX SUMMER STREAM RD DENTON TX ,33.2619708,-97.1250901,VALID
1138,31XX OLD NORTH RD DENTON TX ,33.2389126,-97.0987633,VALID
1139,41XX I 35 DENTON TX ,33.2802739,-97.177933,VALID
1140,25XX CHEBI LN DENTON TX ,33.2381202,-97.1002328,VALID
1141,23XX CANONGATE DR DENTON TX ,33.2497387,-97.155547,VALID
1142,78XX CASTLE PINES LN DENTON TX ,33.1724739,-97.0598358,VALID
1143,25XX FREEDOM LN DENTON TX ,33.2383167,-97.095969,VALID
1144,26XX CHEBI LN DENTON TX ,33.2381202,-97.1002328,VALID
1145,1XX E MCKINNEY ST DENTON TX ,33.2115705,-97.0875966,VALID
1146,73XX CHAUCER DR DENTON TX ,33.1487281,-97.1127558,VALID
1147,67XX ALDERBROOK DR DENTON TX ,33.148481,-97.0955017,VALID
1148,4XX BENJIMAN ST DENTON TX ,33.2452631,-97.1374781,VALID
1149,1XX S MAYHILL RD DENTON TX ,33.1922091,-97.0856294,VALID
1150,7XX HILLCREST ST DENTON TX ,33.2233187,-97.1569315,VALID
1151,57XX MILLS RD DENTON TX ,33.2152229,-97.0713378,VALID
1152,20XX WESTWOOD DR DENTON TX ,33.1941786,-97.1458733,VALID
1153,9XX S CARROLL BLVD DENTON TX ,33.2093664,-97.137149,VALID
1154,20XX WINTHROP HILL RD DENTON TX ,33.1585859,-97.1554732,VALID
1155,9XX BEATTY ST DENTON TX ,33.2059439,-97.1431844,VALID
1156,10XX EDINBURG LN DENTON TX ,33.2448557,-97.1169526,VALID
1157,28XX I 35 HWY DENTON TX ,37.9418219,-96.7515814,VALID
1158,14XX W OAK ST DENTON TX ,33.2157359,-97.1545246,VALID
1159,33XX FORT WORTH DR DENTON TX ,33.1675471,-97.1532309,VALID
1160,22XX BOLIVAR ST DENTON TX ,33.2283073,-97.1348068,VALID
1161,6XX W HICKORY ST DENTON TX ,33.2146565,-97.1475676,VALID
1162,14XX OAKLAND ST DENTON TX ,33.2209425,-97.1299558,VALID
1163,STOCKBRIDGE RD DENTON TX ,33.1839991,-97.0916819,VALID
1164,56XX I 35 W HWY DENTON TX ,33.1648139,-97.1855749,VALID
1165,21XX LATTIMORE ST DENTON TX ,33.2253527,-97.110405,VALID
1166,24XX SHERATON RD DENTON TX ,33.2536129,-97.1198483,VALID
1167,6XX CARDINAL DR DENTON TX ,33.2188503,-97.09203,VALID
1168,25XX NOTTINGHAM DR DENTON TX ,33.2389117,-97.1066916,VALID
1169,75XX VALLEY STREAM RD DENTON TX ,33.1785937,-97.0571527,VALID
1170,52XX I 35 DENTON TX ,33.2802739,-97.177933,VALID
1171,19XX N CARROLL BLVD DENTON TX ,33.2279879,-97.1368644,VALID
1172,48XX I 35 HWY DENTON TX ,33.2680024,-97.1780427,VALID
1173,15XX EUFEMIA DR DENTON TX ,33.2508317,-97.1440301,VALID
1174,21XX BRINKER RD DENTON TX ,33.1883701,-97.095871,VALID
1175,33XX WAGON TRAIL DR DENTON TX ,33.2105967,-97.0983387,VALID
1176,47XX DOGWOOD DR DENTON TX ,33.1687518,-97.0723926,VALID
1177,LONGRIDGE DR DENTON TX ,33.1834329,-97.1210795,VALID
1178,9XX PROVIDENCE ST DENTON TX ,33.1774095,-97.1214207,VALID
1179,5XX MADDOX ST DENTON TX ,33.2090001,-97.1270685,VALID
1180,31XX STONECROP TRL DENTON TX ,33.171187,-97.1618373,VALID
1181,13XX DEER TRL DENTON TX ,33.1976558,-97.1144156,VALID
1182,22XX YORKSHIRE ST DENTON TX ,33.2512258,-97.1115566,VALID
1183,67XX HAYLING WAY DENTON TX ,33.1487251,-97.096574,VALID
1184,55XX PORTOLA LN DENTON TX ,33.1745435,-97.0720048,VALID
1185,50XX NAUTICAL LN DENTON TX ,33.1451025,-97.1010774,VALID
1186,12XX HILLCREST ST DENTON TX ,33.2233187,-97.1569315,VALID
1187,39XX CAMELOT ST DENTON TX ,33.2547572,-97.1235202,VALID
1188,9XX KILKENNY CT DENTON TX ,33.1754165,-97.1423768,VALID
1189,80XX OAK CREEK LN DENTON TX ,33.2150791,-97.0537624,VALID
1190,6XX W UNIVERSITY DR DENTON TX ,33.2303119,-97.1816464,VALID
1191,18XX BROADWAY ST DENTON TX ,33.222518,-97.1483385,VALID
1192,16XX WHITE OAK CT DENTON TX ,33.222753,-97.1119098,VALID
1193,8XX ALICE ST DENTON TX ,33.2254848,-97.1401655,VALID
1194,XX WELLINGTON OAKS CIR DENTON TX ,33.1653124,-97.1311594,VALID
1195,10XX WILLOWWOOD ST DENTON TX ,33.1963499,-97.15154,VALID
1196,27XX GREGG DR EDINBURG TX ,26.2748033,-98.1445253,VALID
1197,1XX MAPLE ST DENTON TX ,33.2082019,-97.1428479,VALID
1198,9XX ALICE ST DENTON TX ,33.2254848,-97.1401655,VALID
1199,27XX N LOCUST ST DENTON TX ,33.256469,-97.1316417,VALID
1200,E EAGLE DR DENTON TX ,33.206632,-97.14474,VALID
1201,ALEGRE VISTA DR DENTON TX ,33.2000181,-97.1266125,VALID
1202,11XX W MULBERRY ST DENTON TX ,33.2135492,-97.1427608,VALID
1203,100XX I 35 HWY DENTON TX ,33.2680024,-97.1780427,VALID
1204,4XX WITHERS ST DENTON TX ,33.2211301,-97.1277038,VALID
1205,26XX MINGO RD DENTON TX ,33.2314612,-97.1056244,VALID
1206,43XX LITTLE BROOK RD DENTON TX ,33.2528349,-97.2026768,VALID
1207,9XX S I 35 E HWY DENTON TX ,33.1814754,-97.102065,VALID
1208,5XX JUPITER DR DENTON TX ,33.25877,-97.1249199,VALID
1209,8XX SIERRA DR DENTON TX ,33.2479414,-97.1193666,VALID
1210,SPENCER RD DENTON TX ,33.1959056,-97.0987982,VALID
1211,56XX E MCKINNEY ST DENTON TX ,33.2115705,-97.0875966,VALID
1212,23XX DOUBLEOAK CT DENTON TX ,33.2189865,-97.1033633,VALID
1213,32XX S I 35 E HWY DENTON TX ,33.1814754,-97.102065,VALID
1214,16XX EGAN ST DENTON TX ,33.2203978,-97.1422526,VALID
1215,47XX INDIAN PAINT WAY DENTON TX ,33.1687089,-97.0702742,VALID
1216,75XX BARRYMORE RD DENTON TX ,33.1764266,-97.0574732,VALID
1217,29XX I 35 DENTON TX ,33.2802739,-97.177933,VALID
1218,11XX E OAK ST DENTON TX ,33.2153379,-97.124989,VALID
1219,14XX STUART RD DENTON TX ,33.253604,-97.1221225,VALID
1220,42XX SONOMA DR DENTON TX ,33.1707058,-97.173622,VALID
1221,25XX CLUB HOUSE DR DENTON TX ,33.2243409,-97.1229744,VALID
1222,8XX BERNARD ST DENTON TX ,33.2010666,-97.1416274,VALID
1223,31XX W UNIVERSITY DR DENTON TX ,33.2303119,-97.1816464,VALID
1224,27XX ROSELAWN DR DENTON TX ,33.1846168,-97.1479993,VALID
1225,63XX THOROUGHBRED TRL DENTON TX ,33.1538329,-97.096408,VALID
1226,46XX WARSCHUN RD DENTON TX ,33.2951832,-97.0788656,VALID
1227,5XX ACME ST DENTON TX ,33.1947949,-97.1395737,VALID
1228,6XX AUDRA LN DENTON TX ,33.2246081,-97.1068564,VALID
1229,5XX W EAGLE DR DENTON TX ,33.206632,-97.14474,VALID
1230,3XX TRIPP TRL DENTON TX ,33.2500682,-97.1341452,VALID
1231,23XX S I 35 E DENTON TX ,33.1814754,-97.102065,VALID
1232,2XX S AVE G DENTON TX ,33.2122342,-97.1579955,VALID
1233,2XX BRYAN ST DENTON TX ,33.2207835,-97.1475497,VALID
1234,27XX ROBINWOOD LN DENTON TX ,33.2376615,-97.1177146,VALID
1235,22XX LATTIMORE ST DENTON TX ,33.2253527,-97.110405,VALID
1236,9XX S AVE C DENTON TX ,33.207115,-97.1508123,VALID
1237,58XX MILAM RDG DENTON TX ,33.2934421,-97.1682086,VALID
1238,1XX PENNSYLVANIA DR DENTON TX ,33.1826901,-97.1178826,VALID
1239,26XX FONDREN RD DENTON TX ,33.1639388,-97.1062976,VALID
1240,48XX S I 35 E CORINTH TX ,33.148343,-97.0569755,VALID
1241,30XX AUGUSTA DR DENTON TX ,33.2345619,-97.1702817,VALID
1242,9XX BERNARD ST DENTON TX ,33.2010666,-97.1416274,VALID
1243,32XX N BELL AVE DENTON TX ,33.2310843,-97.1272288,VALID
1244,21XX LESLIE ST DENTON TX ,33.1934496,-97.1429921,VALID
1245,3XX W HOBSON LN DENTON TX ,33.1760298,-97.1317986,VALID
1246,3XX TEXAS ST DENTON TX ,33.2222473,-97.123652,VALID
1247,3XX W SYCAMORE ST DENTON TX ,33.2126151,-97.1438642,VALID
1248,29XX OSAGE LN DENTON TX ,33.1771724,-97.1110714,VALID
1249,8XX LYNHURST LN DENTON TX ,33.1807543,-97.1172597,VALID
1250,NOTTINGHAM DR DENTON TX ,33.2389117,-97.1066916,VALID
1251,20XX W OAK ST DENTON TX ,33.2157359,-97.1545246,VALID
1252,24XX LILLIAN B MILLER PKWY DENTON TX ,33.1824753,-97.1094951,VALID
1253,27XX JAMES ST DENTON TX ,33.1820245,-97.141914,VALID
1254,11XX CRESCENT ST DENTON TX ,33.2257629,-97.1497812,VALID
1255,5XX N LOCUST ST DENTON TX ,33.256469,-97.1316417,VALID
1256,4XX HOLLYHILL LN DENTON TX ,33.1882245,-97.1148274,VALID
1257,4XX AUDRA LN DENTON TX ,33.2246081,-97.1068564,VALID
1258,4XX N CRAWFORD ST DENTON TX ,33.2179936,-97.120214,VALID
1259,OAKLAWN AVE DENTON TX ,33.2346207,-97.1279994,VALID
1260,ROYAL OAKS CIR DENTON TX ,33.1632277,-97.1313507,VALID
1261,104XX CASCADE DR DENTON TX ,33.1437159,-97.236256,VALID
1262,19XX CAMDEN CT DENTON TX ,33.189929,-97.12284,VALID
1263,6XX PEARL ST DENTON TX ,33.2171867,-97.1379844,VALID
1264,12XX SPRINGCREEK DR DENTON TX ,33.1672742,-97.1449504,VALID
1265,10XX W COLLINS ST DENTON TX ,33.2041237,-97.1393456,VALID
1266,14XX FORT WORTH DR DENTON TX ,33.1675471,-97.1532309,VALID
1267,14XX MYRTLE ST DENTON TX ,33.2050727,-97.1350973,VALID
1268,8XX OAK VLY DENTON TX ,33.2234143,-97.1015613,VALID
1269,ROBBIE-O ST DENTON TX ,33.2488186,-97.136298,VALID
1270,87XX SERENITY WAY DENTON TX ,33.1433045,-97.1148147,VALID
1271,15XX N LOCUST ST DENTON TX ,33.256469,-97.1316417,VALID
1272,98XX STONEWOOD DR DENTON TX ,33.1347178,-97.233177,VALID
1273,9XX SUNSET ST DENTON TX ,33.2296642,-97.1383821,VALID
1274,6XX MAGNOLIA ST DENTON TX ,33.2401965,-97.1397131,VALID
1275,7XX S I 35 E HWY DENTON TX ,33.1814754,-97.102065,VALID
1276,10XX W OAK ST DENTON TX ,33.2157359,-97.1545246,VALID
1277,24XX STELLA ST DENTON TX ,33.2137895,-97.1586493,VALID
1278,29XX OAKSHIRE ST DENTON TX ,33.2298302,-97.0988404,VALID
1279,3XX JOSHUA ST DENTON TX ,33.2175454,-97.0997246,VALID
1280,11XX S WOODROW LN DENTON TX ,33.2072363,-97.1120564,VALID
1281,17XX E RYAN RD DENTON TX ,33.161471,-97.1246831,VALID
1282,4XX NORTH TEXAS BLVD DENTON TX ,33.2064112,-97.1534274,VALID
1283,29XX N ELM ST DENTON TX ,33.2483035,-97.1480169,VALID
1284,9XX WILLOWWOOD ST DENTON TX ,33.1963499,-97.15154,VALID
1285,9XX S ELM ST DENTON TX ,33.2101561,-97.1337726,VALID
1286,22XX JEFFERSON TRL DENTON TX ,33.1818089,-97.1227325,VALID
1287,42XX BOXWOOD DR DENTON TX ,33.1723704,-97.0643787,VALID
1288,28XX SPENCER RD DENTON TX ,33.1959056,-97.0987982,VALID
1289,15XX E SHERMAN DR DENTON TX ,33.276093,-97.0962546,VALID
1290,7XX BUSHEY ST DENTON TX ,33.2071514,-97.1208431,VALID
1291,35XX KINGFISHER LN DENTON TX ,33.2196687,-97.0929843,VALID
1292,113XX W UNIVERSITY DR DENTON TX ,33.2303119,-97.1816464,VALID
1293,53XX WHITING WAY DENTON TX ,33.205552,-97.0755877,VALID
1294,32XX LIPIZZAN DR DENTON TX ,33.1516303,-97.1017658,VALID
1295,34XX ANDALUSIAN DR DENTON TX ,33.1560233,-97.0976197,VALID
1296,6XX W SYCAMORE ST DENTON TX ,33.2126151,-97.1438642,VALID
1297,9XX N MASCH BRANCH RD DENTON TX ,33.2304372,-97.1972384,VALID
1298,34XX PAISLEY ST DENTON TX ,33.2207581,-97.1094508,VALID
1299,30XX TERRY CT DENTON TX ,33.2276305,-97.0980911,VALID
1300,12XX TEASLEY LN DENTON TX ,33.1678163,-97.1103429,VALID
1301,14XX GATEWOOD DR DENTON TX ,33.1795937,-97.1148734,VALID
1302,13XX UNDERWOOD ST DENTON TX ,33.203434,-97.1490791,VALID
1303,23XX SHENANDOAH TRL DENTON TX ,33.1796577,-97.1082128,VALID
1304,2XX TRIPP TRL DENTON TX ,33.2500682,-97.1341452,VALID
1305,11XX N MAYHILL RD DENTON TX ,33.2218988,-97.0831971,VALID
1306,7XX E HICKORY ST DENTON TX ,33.2144196,-97.1253362,VALID
1307,22XX E MCKINNEY ST DENTON TX ,33.2115705,-97.0875966,VALID
1308,MANHATTAN DR DENTON TX ,33.2471244,-97.1195215,VALID
1309,18XX SENA ST DENTON TX ,33.2200484,-97.1531323,VALID
1310,52XX TARTAN CIR DENTON TX ,33.2062669,-97.0755431,VALID
1311,79XX HUDSON BAY LN DENTON TX ,33.1825588,-97.0566498,VALID
1312,34XX EVENING WIND RD DENTON TX ,33.179686,-97.0617983,VALID
1313,82XX MONTECITO DR DENTON TX ,33.1606932,-97.1198416,VALID
1314,79XX WINDING STREAM DR DENTON TX ,33.143518,-97.121976,VALID
1315,11XX DALLAS DR DENTON TX ,33.1993677,-97.1242105,VALID
1316,FRAME ST DENTON TX ,33.2236635,-97.1247226,VALID
1317,9XX AVE A DENTON TX ,33.2083388,-97.1462368,VALID
1318,22XX WESTVIEW TRL DENTON TX ,33.2375852,-97.1689603,VALID
1319,7XX FRAME ST DENTON TX ,33.2236635,-97.1247226,VALID
1320,7XX ECTOR ST DENTON TX ,33.2242992,-97.1550157,VALID
1321,47XX I 35 DENTON TX ,33.2802739,-97.177933,VALID
1322,23XX OVERLOOK LN DENTON TX ,33.2384188,-97.1662471,VALID
1323,35XX HORNBEAM ST DENTON TX ,33.171953,-97.1637127,VALID
1324,16XX HANOVER DR DENTON TX ,33.2416405,-97.1123153,VALID
1325,19XX LAKEVIEW BLVD DENTON TX ,33.2257982,-97.0604461,VALID
1326,7XX ALEXANDER ST DENTON TX ,33.2081725,-97.1220635,VALID
1327,14XX OAKWOOD DR DENTON TX ,33.1975666,-97.1468746,VALID
1328,2XX HOLLYHILL LN DENTON TX ,33.1882245,-97.1148274,VALID
1329,47XX CONLEY LN DENTON TX ,33.2625095,-97.1223852,VALID
1330,31XX N BELL AVE DENTON TX ,33.2310843,-97.1272288,VALID
1331,2XX N CARROLL BLVD DENTON TX ,33.2279879,-97.1368644,VALID
1332,6XX S I 35 E DENTON TX ,33.1814754,-97.102065,VALID
1333,36XX ANDALUSIAN DR DENTON TX ,33.1560233,-97.0976197,VALID
1334,30XX N BELL AVE DENTON TX ,33.2310843,-97.1272288,VALID
1335,49XX BARTHOLD RD DENTON TX ,33.2770646,-97.1966211,VALID
1336,27XX MONCAYO DR DENTON TX ,33.2406274,-97.1256174,VALID
1337,14XX N AUSTIN ST DENTON TX ,33.2208521,-97.1311235,VALID
1338,41XX REINING RD DENTON TX ,33.2988637,-97.0689706,VALID
1339,14XX WILDERNESS ST DENTON TX ,33.1984432,-97.1141093,VALID
1340,16XX GREENWOOD DR DENTON TX ,33.2353581,-97.1173887,VALID
1341,3XX N BRADSHAW ST DENTON TX ,33.2174708,-97.1214186,VALID
1342,20XX LOON LAKE RD DENTON TX ,33.1745164,-97.1068236,VALID
1343,6XX N WOOD ST DENTON TX ,33.2179707,-97.1190058,VALID
1344,27XX FOXCROFT CIR DENTON TX ,33.2389959,-97.1021072,VALID
1345,26XX VIRGINIA CIR DENTON TX ,33.2332466,-97.0943827,VALID
1346,20XX SCRIPTURE ST DENTON TX ,33.2188813,-97.1575335,VALID
1347,E MISSION ST DENTON TX ,33.1809806,-97.1366777,VALID
1348,12XX ANNA ST DENTON TX ,33.2257569,-97.1361846,VALID
1349,31XX COLORADO BLVD DENTON TX ,33.1875187,-97.1026425,VALID
1350,27XX HOLLOW RIDGE DR DENTON TX ,33.1684747,-97.1045152,VALID
1351,7XX W HICKORY ST DENTON TX ,33.2146565,-97.1475676,VALID
1352,9XX SCOTT DR DENTON TX ,33.2037829,-97.1174814,VALID
1353,COUNTRY CLUB RD DENTON TX ,33.1621985,-97.1419084,VALID
1354,36XX MARQUETTE DR DENTON TX ,33.1602708,-97.0913424,VALID
1355,78XX US 377 WATAUGA TX ,32.8756633,-97.2617581,VALID
1356,1XX AVE D DENTON TX ,33.2092069,-97.1529557,VALID
1357,19XX REDWOOD PL DENTON TX ,33.2324808,-97.1118331,VALID
1358,15XX W HICKORY ST DENTON TX ,33.2146565,-97.1475676,VALID
1359,6XX JACKSON ST DENTON TX ,33.2074411,-97.1257632,VALID
1360,55XX MARINA DR DENTON TX ,33.1762209,-97.0744372,VALID
1361,COLORADO BLVD DENTON TX ,33.1875187,-97.1026425,VALID
1362,11XX W COLLINS ST DENTON TX ,33.2041237,-97.1393456,VALID
1363,4XX ROBERTSON ST DENTON TX ,33.2081211,-97.1276932,VALID
1364,20XX EMERY ST DENTON TX ,33.2283873,-97.1497,VALID
1365,47XX PIEDMONTE CT DENTON TX ,33.1717666,-97.1750573,VALID
1366,2XX E SHERMAN DR DENTON TX ,33.276093,-97.0962546,VALID
1367,ECTOR ST DENTON TX ,33.2242992,-97.1550157,VALID
1368,33XX GARDENVIEW CIR DENTON TX ,33.2477881,-97.1414828,VALID
1369,40XX BARNHILL CT DENTON TX ,33.1808353,-97.0540713,VALID
1370,49XX S I 35 E DENTON TX ,33.1814754,-97.102065,VALID
1371,31XX HORNBEAM ST DENTON TX ,33.171953,-97.1637127,VALID
1372,10XX COIT ST DENTON TX ,33.2242203,-97.1379801,VALID
1373,94XX TRAILWOOD DR DENTON TX ,33.1371818,-97.2272682,VALID
1374,38XX MARKET ST DENTON TX ,33.2173299,-97.0884927,VALID
1375,24XX WESTWOOD DR DENTON TX ,33.1941786,-97.1458733,VALID
1376,56XX MARINA DR DENTON TX ,33.1762209,-97.0744372,VALID
1377,33XX VALLEY VIEW RD DENTON TX ,33.25182,-97.1237732,VALID
1378,27XX BEVERLY DR DENTON TX ,33.2269036,-97.0989449,VALID
1379,27XX CORDOVA CIR DENTON TX ,33.2406274,-97.1256174,VALID
1380,9XX CRUISE ST DENTON TX ,33.2586071,-97.1189391,VALID
1381,14XX HUNTERS RIDGE CIR DENTON TX ,33.1773577,-97.1133037,VALID
1382,22XX EMERY ST DENTON TX ,33.2283873,-97.1497,VALID
1383,2XX E WINDSOR DR DENTON TX ,33.2439517,-97.1120302,VALID
1384,10XX E OAK ST DENTON TX ,33.2153379,-97.124989,VALID
1385,21XX NORTH LAKE TRL DENTON TX ,33.23537,-97.1524327,VALID
1386,6XX NEWTON ST DENTON TX ,33.2075715,-97.1165881,VALID
1387,20XX HOLLYHILL LN DENTON TX ,33.1882245,-97.1148274,VALID
1388,22XX ACORN BND DENTON TX ,33.142626,-97.1087981,VALID
1389,22XX N MASCH BRANCH RD DENTON TX ,33.2304372,-97.1972384,VALID
1390,23XX PICADILLY LN DENTON TX ,33.2543598,-97.1145564,VALID
1391,14XX MONTEVIDEO CT DENTON TX ,33.1627873,-97.1155252,VALID
1392,64XX MEANDERING CREEK DR DENTON TX ,33.1339837,-97.1975771,VALID
1393,8XX OAKLAND ST DENTON TX ,33.2209425,-97.1299558,VALID
1394,1XX RED FOX LN DENTON TX ,33.1592888,-97.1354921,VALID
1395,58XX LONGMONT DR DENTON TX ,33.169796,-97.078399,VALID
1396,46XX TRUMPET VINE ST DENTON TX ,33.1693855,-97.0685319,VALID
1397,9XX PANHANDLE ST DENTON TX ,33.2216193,-97.1526645,VALID
1398,39XX ATLAS DR DENTON TX ,33.2550754,-97.1245216,VALID
1399,1XX DALLAS DR DENTON TX ,33.1993677,-97.1242105,VALID
1400,31XX PENINSULA TRL DENTON TX ,33.1771923,-97.0763209,VALID
1401,15XX BOLIVAR ST DENTON TX ,33.2283073,-97.1348068,VALID
1402,4XX MOCKINGBIRD LN DENTON TX ,33.2223676,-97.0976468,VALID
1403,21XX BERNARD ST DENTON TX ,33.2010666,-97.1416274,VALID
1404,10XX HOPKINS DR DENTON TX ,33.1971098,-97.1189362,VALID
1405,61XX GOLDENROD DR DENTON TX ,33.1681845,-97.0747561,VALID
1406,66XX SADDLEBACK DR DENTON TX ,33.1501466,-97.100455,VALID
1407,I 35 W HWY DENTON COUNTY TX ,33.1010526,-97.224088,VALID
1408,5XX CHATEAU CT DENTON TX ,33.2385653,-97.125085,VALID
1409,24XX BRINKER RD DENTON TX ,33.1883701,-97.095871,VALID
1410,36XX WESSEX CT DENTON TX ,33.1657925,-97.0902746,VALID
1411,53XX SEA COVE LN DENTON TX ,33.1776434,-97.073285,VALID
1412,8XX E SHERMAN DR DENTON TX ,33.276093,-97.0962546,VALID
1413,19XX LESLIE ST DENTON TX ,33.1934496,-97.1429921,VALID
1414,36XX DUNES ST DENTON TX ,33.2471049,-97.1039667,VALID
1415,36XX BIG HORN TRL DENTON TX ,33.1699907,-97.1060098,VALID
1416,GLEN FALLS LN DENTON TX ,33.1395542,-97.1150059,VALID
1417,59XX BROOKSIDE DR DENTON TX ,33.1355344,-97.1868545,VALID
1418,4XX WAINWRIGHT ST DENTON TX ,33.2098783,-97.131359,VALID
1419,5XX PANHANDLE ST DENTON TX ,33.2216193,-97.1526645,VALID
1420,24XX TOM COLE RD DENTON TX ,33.2070977,-97.2055129,VALID
1421,3XX WILLOW STONE ST DENTON TX ,33.2520491,-97.1296199,VALID
1422,33XX BENTGATE CT DENTON TX ,33.1698095,-97.1479184,VALID
1423,34XX BARCELONA ST DENTON TX ,33.2353204,-97.1779058,VALID
1424,55XX GALANTE LN DENTON TX ,33.1726954,-97.0759044,VALID
1425,23XX BERNARD ST DENTON TX ,33.2010666,-97.1416274,VALID
1426,31XX DARBY LN DENTON TX ,33.2477472,-97.1709504,VALID
1427,27XX ROBINSON RD DENTON TX ,33.1582681,-97.0989069,VALID
1428,3XX JAGOE ST DENTON TX ,33.2174969,-97.1505839,VALID
1429,N CRAWFORD ST DENTON TX ,33.2179936,-97.120214,VALID
1430,7XX SMOKERISE CIR DENTON TX ,33.1786694,-97.1161656,VALID
1431,20XX N ELM ST DENTON TX ,33.2483035,-97.1480169,VALID
1432,3XX N WOOD ST DENTON TX ,33.2179707,-97.1190058,VALID
1433,98XX IRONWOOD DR DENTON TX ,33.1329222,-97.2320192,VALID
1434,35XX ST JOHNS DR DENTON TX ,33.1586845,-97.089616,VALID
1435,4XX STROUD ST DENTON TX ,33.2115849,-97.1356449,VALID
1436,25XX ROBINSON RD DENTON TX ,33.1582681,-97.0989069,VALID
1437,30XX BRANDYWINE ST DENTON TX ,33.2311836,-97.0965691,VALID
1438,36XX BEATRIZ DR DENTON TX ,33.2524586,-97.1432385,VALID
1439,35XX SAN LUCAS LN DENTON TX ,33.1742931,-97.0759623,VALID
1440,26XX WESLAYAN DR DENTON TX ,33.1676977,-97.1038833,VALID
1441,22XX STELLA ST DENTON TX ,33.2137895,-97.1586493,VALID
1442,17XX WESTCHESTER DR DENTON TX ,33.2275761,-97.1514848,VALID
1443,27XX MILL POND RD DENTON TX ,33.2407783,-97.0976352,VALID
1444,11XX S AVE B DENTON TX ,33.2082576,-97.1485447,VALID
1445,9XX EMERY ST DENTON TX ,33.2283873,-97.1497,VALID
1446,50XX ATLANTIC DR DENTON TX ,33.1444928,-97.0983921,VALID
1447,5XX W PARKWAY ST DENTON TX ,33.2180686,-97.1358893,VALID
1448,2XX E OAK ST DENTON TX ,33.2153379,-97.124989,VALID
1449,38XX I 35 DENTON TX ,33.2802739,-97.177933,VALID
1450,11XX RALEIGH PATH DENTON TX ,33.2272323,-97.0853087,VALID
1451,4XX AMARILLO ST DENTON TX ,33.2192471,-97.1422904,VALID
1452,10XX LONGRIDGE DR DENTON TX ,33.1834329,-97.1210795,VALID
1453,21XX N I 35 E HWY DENTON TX ,33.2036084,-97.1504619,VALID
1454,2XX DALLAS DR DENTON TX ,33.1993677,-97.1242105,VALID
1455,4XX W WINDSOR DR DENTON TX ,33.2402202,-97.1526306,VALID
1456,11XX OAKWOOD DR DENTON TX ,33.1975666,-97.1468746,VALID
1457,23XX N ELM ST DENTON TX ,33.2483035,-97.1480169,VALID
1458,38XX HARBOUR MIST TRL DENTON TX ,33.1732271,-97.0733725,VALID
1459,49XX MILLS RD DENTON TX ,33.2152229,-97.0713378,VALID
1460,5XX S I 35 E HWY DENTON TX ,33.1814754,-97.102065,VALID
1461,13XX TULANE DR DENTON TX ,33.2333818,-97.1481085,VALID
1462,6XX GREENWOOD DR DENTON TX ,33.2353581,-97.1173887,VALID
1463,1XX CORONADO DR DENTON TX ,33.2394263,-97.1271636,VALID
1464,6XX RAILROAD AVE DENTON TX ,33.2160644,-97.1259537,VALID
1465,SPRING VALLEY DR DENTON TX ,33.2345757,-97.0873795,VALID
1466,17XX WAYNE ST DENTON TX ,33.2263648,-97.1126765,VALID
1467,6XX DALLAS DR DENTON TX ,33.1993677,-97.1242105,VALID
1468,PAISLEY ST DENTON TX ,33.2207581,-97.1094508,VALID
1469,67XX PURBECK TRL DENTON TX ,33.1499606,-97.0927666,VALID
1470,40XX HILLTOP LN DENTON TX ,33.1802553,-97.065524,VALID
1471,9XX E WINDSOR DR DENTON TX ,33.2439517,-97.1120302,VALID
1472,8XX N I 35 E DENTON TX ,33.2036084,-97.1504619,VALID
1473,15XX S AVE C DENTON TX ,33.207115,-97.1508123,VALID
1474,40XX MEADOW LN DENTON TX ,33.2535906,-97.1292952,VALID
1475,85XX I 35 W HWY DENTON TX ,33.1648139,-97.1855749,VALID
1476,50XX PARKPLACE DR DENTON TX ,33.1341609,-97.1880513,VALID
1477,3XX W CONGRESS ST DENTON TX ,33.219372,-97.1407651,VALID
1478,37XX HERMALINDA DR DENTON TX ,33.2530694,-97.1460882,VALID
1479,90XX FORT WORTH DR DENTON TX ,33.1675471,-97.1532309,VALID
1480,9XX W CHESTNUT ST DENTON TX ,33.2112623,-97.1429876,VALID
1481,24XX CHAMPLAIN LN DENTON TX ,33.1756087,-97.1069233,VALID
1482,24XX CREEKDALE DR DENTON TX ,33.1541853,-97.1237441,VALID
1483,32XX NOTTINGHAM DR DENTON TX ,33.2389117,-97.1066916,VALID
1484,3XX BERNARD ST DENTON TX ,33.2010666,-97.1416274,VALID
1485,12XX N I 35 E DENTON TX ,33.2036084,-97.1504619,VALID
1486,22XX NORTHWAY DENTON TX ,33.2381598,-97.1645905,VALID
1487,44XX LOST CREEK RD DENTON TX ,33.1585251,-97.134629,VALID
1488,13XX WHITE DOVE LN DENTON TX ,33.1455132,-97.11675,VALID
1489,30XX CAMINO REAL TRL DENTON TX ,33.1747817,-97.0767076,VALID
1490,42XX ROXBURY ST DENTON TX ,33.1587421,-97.111457,VALID
1491,27XX MISTYWOOD LN DENTON TX ,33.2371598,-97.1060725,VALID
1492,3XX W WINDSOR DR DENTON TX ,33.2402202,-97.1526306,VALID
1493,36XX TEASLEY LN DENTON TX ,33.1678163,-97.1103429,VALID
1494,36XX DUCHESS DR DENTON TX ,33.2096291,-97.0996858,VALID
1495,108XX BALENTINE ST DENTON TX ,33.1410838,-97.2416463,VALID
1496,11XX BROADWAY ST DENTON TX ,33.222518,-97.1483385,VALID
1497,23XX CADDO CIR DENTON TX ,33.1762203,-97.1080615,VALID
1498,17XX ANNA ST DENTON TX ,33.2257569,-97.1361846,VALID
1499,20XX PARKSIDE DR DENTON TX ,33.2363008,-97.1533791,VALID
1500,3XX ADMINISTRATION DR DENTON TX ,33.2273419,-97.1260169,VALID
1501,1XX BLUEBIRD CIR DENTON TX ,33.2149036,-97.0938238,VALID
1502,9XX INDUSTRIAL ST DENTON TX ,33.211199,-97.1301502,VALID
1503,10XX CRUISE ST DENTON TX ,33.2586071,-97.1189391,VALID
1504,85XX STALLION CT DENTON TX ,33.2133366,-97.0508042,VALID
1505,6XX CHATEAU CT DENTON TX ,33.2385653,-97.125085,VALID
1506,14XX VAL VERDE CT DENTON TX ,33.1495242,-97.1183195,VALID
1507,53XX PARK PLACE DR. ARGYLE TX TX ,33.1339237,-97.1856568,VALID
1508,81XX HOUSTON RD SANGER TX ,33.3167669,-97.2575408,VALID
1509,12XX E WINDSOR DR DENTON TX ,33.2439517,-97.1120302,VALID
1510,74XX N LOCUST ST DENTON TX ,33.256469,-97.1316417,VALID
1511,12XX FANNIN ST DENTON TX ,33.2053796,-97.1451123,VALID
1512,5XX W SYCAMORE ST DENTON TX ,33.2126151,-97.1438642,VALID
1513,2XX E SYCAMORE ST DENTON TX ,33.2124371,-97.125394,VALID
1514,32XX BELMONT ST DENTON TX ,33.1686065,-97.1354584,VALID
1515,15XX BOYD ST DENTON TX ,33.2296394,-97.1127991,VALID
1516,35XX W Airport Fwy IRVING TX ,32.8366602,-96.9877125,VALID
1517,83XX TEASLEY LN DENTON TX ,33.1678163,-97.1103429,VALID
1518,4XX GARDENVIEW ST DENTON TX ,33.2467182,-97.1380801,VALID
1519,27XX VALENCIA LN DENTON TX ,33.1777975,-97.1030939,VALID
1520,28XX SOUTHRIDGE DR DENTON TX ,33.1855332,-97.1141978,VALID
1521,4XX N LOOP 288 DENTON TX ,33.2584052,-97.1428634,VALID
1522,34XX MONTECITO RD DENTON TX ,33.1606932,-97.1198416,VALID
1523,20XX REDWOOD PL DENTON TX ,33.2324808,-97.1118331,VALID
1524,46XX PLANO PKWY CARROLLTON TX ,33.0498351,-96.8673672,VALID
1525,GROVELAND TER DENTON TX ,33.1472386,-97.1003503,VALID
1526,5XX MALONE ST DENTON TX ,33.2281522,-97.1497076,VALID
1527,19XX BOYD ST DENTON TX ,33.2296394,-97.1127991,VALID
1528,6XX WOODLAND ST DENTON TX ,33.2320287,-97.1263603,VALID
1529,25XX SPENCER RD DENTON TX ,33.1959056,-97.0987982,VALID
1530,2XX W SYCAMORE ST DENTON TX ,33.2126151,-97.1438642,VALID
1531,1XX CUNNINGHAM RD DENTON TX ,33.2189746,-97.0714257,VALID
1532,31XX BRIARY TRACE CT DENTON TX ,33.1707828,-97.1454794,VALID
1533,9XX JEFFREY DR DENTON TX ,33.2034834,-97.0748738,VALID
1534,11XX KEYSTONE CT DENTON TX ,33.2684187,-97.1230026,VALID
1535,3XX LEMON MINT LN DENTON TX ,33.1609021,-97.1378372,VALID
1536,28XX SHORELINE DR DENTON TX ,33.1734496,-97.0992169,VALID
1537,7XX DENTON ST DENTON TX ,33.2197983,-97.1390881,VALID
1538,23XX REDONDO RD DENTON TX ,33.1573612,-97.1081905,VALID
1539,35XX S I 35 E HWY DENTON TX ,33.1814754,-97.102065,VALID
1540,13XX N I 35 E HWY DENTON TX ,33.2036084,-97.1504619,VALID
1541,62XX MEANDERING CREEK DR DENTON TX ,33.1339837,-97.1975771,VALID
1542,46XX SHAGBARK DR DENTON TX ,33.1708229,-97.1663811,VALID
1543,36XX LIPIZZAN DR DENTON TX ,33.1516303,-97.1017658,VALID
1544,REDWOOD PL DENTON TX ,33.2324808,-97.1118331,VALID
1545,MOCKINGBIRD LN DENTON TX ,33.2223676,-97.0976468,VALID
1546,12XX N I 35 E HWY DENTON TX ,33.2036084,-97.1504619,VALID
1547,1XX N WOOD ST DENTON TX ,33.2179707,-97.1190058,VALID
1548,2XX SAWYER AVE DENTON TX ,33.2235419,-97.1311323,VALID
1549,2XX N CARPENTER RD DENTON TX ,33.2104011,-97.0786554,VALID
1550,24XX SPRING MEADOWS DR DENTON TX ,33.2219329,-97.1035957,VALID
1551,28XX ENGLEFIELD GRN DENTON TX ,33.2393002,-97.1725312,VALID
1552,16XX LAURELWOOD DR DENTON TX ,33.2361628,-97.1108191,VALID
1553,28XX N BONNIE BRAE ST DENTON TX ,33.2460697,-97.1605525,VALID
1554,26XX WELLINGTON DR DENTON TX ,33.2493375,-97.1133424,VALID
1555,6XX MEADOW VIEW CT DENTON TX ,33.2463745,-97.1408269,VALID
1556,4XX PACE DR DENTON TX ,33.2220745,-97.1008178,VALID
1557,19XX LATTIMORE ST DENTON TX ,33.2253527,-97.110405,VALID
1558,52XX ABBY WAY DENTON TX ,33.20407,-97.0756936,VALID
1559,15XX DALLAS DR DENTON TX ,33.1993677,-97.1242105,VALID
1560,109XX SOUTHERLAND DR DENTON TX ,33.1323248,-97.2465841,VALID
1561,11XX N LOOP 288 DENTON TX ,33.2584052,-97.1428634,VALID
1562,36XX COTTEN DR DENTON TX ,33.252978,-97.1409381,VALID
1563,62XX ENGLISH SADDLE LN DENTON TX ,33.1524257,-97.1027552,VALID
1564,37XX LOGAN DR DENTON TX ,33.2550013,-97.1469487,VALID
1565,65XX PINE HILLS LN DENTON TX ,33.1512005,-97.0948834,VALID
1566,15XX LATTIMORE ST DENTON TX ,33.2253527,-97.110405,VALID
1567,21XX E UNIVERSITY DR DENTON TX ,33.2345383,-97.0783176,VALID
1568,1XX SAMUEL ST DENTON TX ,33.2536506,-97.1343458,VALID
1569,12XX SAN GABRIEL DR DENTON TX ,33.1940517,-97.1150861,VALID
1570,10XX MINOR CIR DENTON TX ,33.2029022,-97.1172627,VALID
1571,22XX BOWLING GREEN ST DENTON TX ,33.2361786,-97.14937,VALID
1572,15XX MCCORMICK ST DENTON TX ,33.1967075,-97.1474472,VALID
1573,34XX HUMMINGBIRD LN DENTON TX ,33.2156946,-97.0935874,VALID
1574,8XX S WELCH ST DENTON TX ,33.2093173,-97.1443753,VALID
1575,2XX SAMUEL ST DENTON TX ,33.2536506,-97.1343458,VALID
1576,N BRADSHAW ST DENTON TX ,33.2174708,-97.1214186,VALID
1577,39XX REDSTONE RD DENTON TX ,33.25716,-97.12634,VALID
1578,6XX S BRADSHAW ST DENTON TX ,33.2100483,-97.1215277,VALID
1579,5XX WOODFORD LN DENTON TX ,33.2185225,-97.1137175,VALID
1580,10XX AVE A DENTON TX ,33.2083388,-97.1462368,VALID
1581,38XX TITAN TRL DENTON TX ,33.2555378,-97.1254731,VALID
1582,33XX BROOKE ST DENTON TX ,33.2470824,-97.1365697,VALID
1583,31XX SARANAC CIR DENTON TX ,33.1776307,-97.1062157,VALID
1584,96XX GREENSTONE WAY DENTON TX ,33.1395187,-97.2582856,VALID
1585,4XX INDUSTRIAL ST DENTON TX ,33.211199,-97.1301502,VALID
1586,20XX MERCEDES RD DENTON TX ,33.1932688,-97.1449557,VALID
1587,6XX E PRAIRIE ST DENTON TX ,33.2105793,-97.1259592,VALID
1588,38XX COUNTRY CLUB RD DENTON TX ,33.1621985,-97.1419084,VALID
1589,1XX WILSON WAY DENTON TX ,33.251638,-97.1344661,VALID
1590,2XX N AUSTIN ST DENTON TX ,33.2208521,-97.1311235,VALID
1591,9XX E MCKINNEY ST DENTON TX ,33.2115705,-97.0875966,VALID
1592,9XX DUNCAN ST DENTON TX ,33.20266,-97.12299,VALID
1593,22XX ARCHER TRL DENTON TX ,33.240091,-97.1062241,VALID
1594,39XX CROSSTREES DR DENTON TX ,33.163655,-97.1127421,VALID
1595,71XX LAS BRISAS CT DENTON TX ,33.1460061,-97.0962466,VALID
1596,11XX THOMAS ST DENTON TX ,33.2220385,-97.1586753,VALID
1597,10XX SCOTT DR DENTON TX ,33.2037829,-97.1174814,VALID
1598,14XX MOZINGO ST DENTON TX ,33.2271945,-97.1103733,VALID
1599,8XX DIXON LN DENTON TX ,33.2577927,-97.1190785,VALID
1600,2XX PENNSYLVANIA DR DENTON TX ,33.1826901,-97.1178826,VALID
1601,43XX CREEKSIDE DR ARLINGTON TX ,32.7115375,-97.178569,VALID
1602,3XX BRYAN ST DENTON TX ,33.2207835,-97.1475497,VALID
1603,17XX N ELM ST DENTON TX ,33.2483035,-97.1480169,VALID
1604,35XX GANZER RD W DENTON TX ,33.2835587,-97.1911931,VALID
1605,36XX SHELBY LN DENTON TX ,33.1945878,-97.1796797,VALID
1606,11XX WINTERCREEK DR DENTON TX ,33.1695011,-97.145022,VALID
1607,11XX SAVAGE DR DENTON TX ,33.2594452,-97.1185826,VALID
1608,3XX STROUD ST DENTON TX ,33.2115849,-97.1356449,VALID
1609,2XX BELLAIRE DR DENTON TX ,33.2168056,-97.0988144,VALID
1610,65XX I 35 DENTON TX ,33.2802739,-97.177933,VALID
1611,11XX FANNIN ST DENTON TX ,33.2053796,-97.1451123,VALID
1612,22XX MINGO RD DENTON TX ,33.2314612,-97.1056244,VALID
1613,9XX IMPERIAL DR DENTON TX ,33.2504713,-97.1188232,VALID
1614,3XX Water Oak ST DENTON TX ,33.2189547,-97.1014596,VALID
1615,34XX BUCKTHORN LN DENTON TX ,33.1704066,-97.1631932,VALID
1616,19XX SHAWNEE ST DENTON TX ,33.2324649,-97.1106551,VALID
1617,4XX FOXWOOD CIR DENTON TX ,33.2458023,-97.1279952,VALID
1618,82XX CROOKED STICK LN DENTON TX ,33.1449471,-97.1650938,VALID
1619,83XX SWAN PARK DR DENTON TX ,33.1421911,-97.1139245,VALID
1620,27XX WINTHROP HILL RD DENTON TX ,33.1585859,-97.1554732,VALID
1621,33XX N BELL AVE DENTON TX ,33.2310843,-97.1272288,VALID
1622,36XX BENTLEY CT DENTON TX ,33.1653411,-97.1276737,VALID
1623,S WOODROW LN DENTON TX ,33.2072363,-97.1120564,VALID
1624,JIM CHRISTAL RD DENTON TX ,33.2201562,-97.2053052,VALID
1625,17XX REDWOOD PL DENTON TX ,33.2324808,-97.1118331,VALID
1626,5XX SUNRISE CV DENTON TX ,33.2376532,-97.1265661,VALID
1627,42XX I 35 HWY DENTON TX ,33.2680024,-97.1780427,VALID
1628,11XX ATLANTA DR DENTON TX ,33.226494,-97.0853623,VALID
1629,2XX N RUDDELL ST DENTON TX ,33.222033,-97.1178217,VALID
1630,12XX MYRTLE ST DENTON TX ,33.2050727,-97.1350973,VALID
1631,8XX MULKEY LN DENTON TX ,33.2215732,-97.1112194,VALID
1632,7XX N WOOD ST DENTON TX ,33.2179707,-97.1190058,VALID
1633,22XX ARROWHEAD DR DENTON TX ,33.2383176,-97.1717199,VALID
1634,38XX DESERT WILLOW DR DENTON TX ,33.176413,-97.0611637,VALID
1635,42XX REMINGTON PARK CT FLOWER MOUND TX ,33.0460767,-97.0957447,VALID
1636,69XX ALDERBROOK DR DENTON TX ,33.148481,-97.0955017,VALID
1637,47XX GREEN RIVER DR DENTON TX ,33.1690197,-97.077308,VALID
1638,18XX CORNELL LN DENTON TX ,33.2312572,-97.1474244,VALID
1639,52XX PAULIE DR DENTON TX ,33.2048454,-97.0756327,VALID
1640,27XX HILCROFT AVE DENTON TX ,33.1669178,-97.1037563,VALID
1641,14XX NOBLE ST DENTON TX ,33.2192897,-97.114527,VALID
1642,WESTGATE DR DENTON TX ,33.2458149,-97.1695269,VALID
1643,49XX STUART RD DENTON TX ,33.253604,-97.1221225,VALID
1644,3XX N BELL AVE DENTON TX ,33.2310843,-97.1272288,VALID
1645,14XX CHURCHILL DR DENTON TX ,33.2438248,-97.1093023,VALID
1646,8XX E WINDSOR DR DENTON TX ,33.2439517,-97.1120302,VALID
1647,67XX WOODMERE CT DENTON TX ,33.1323168,-97.2007932,VALID
1648,2XX CASIE CT DENTON TX ,33.2444678,-97.1366922,VALID
1649,23XX PALAMINO CT DENTON TX ,33.1736849,-97.1086766,VALID
1650,3XX GOLDFINCH RD DENTON TX ,33.1564655,-97.1364743,VALID
1651,10XX TALLAHASSEE DR DENTON TX ,33.2264717,-97.086253,VALID
